{
"type": "FeatureCollection",
"name": "alterationR2",
"crs": { "type": "name", "properties": { "name": "urn:ogc:def:crs:OGC:1.3:CRS84" } },
"features": [
{ "type": "Feature", "properties": { "address": "8500 ESSINGTON AVE", "year": 2008.0, "permitdescription": "ALTERATION PERMIT" }, "geometry": { "type": "Point", "coordinates": [ -75.23177486305697, 39.880338135909604 ] } },
{ "type": "Feature", "properties": { "address": "8500 ESSINGTON AVE", "year": 2010.0, "permitdescription": "ALTERATION PERMIT" }, "geometry": { "type": "Point", "coordinates": [ -75.23177486305697, 39.880338135909604 ] } },
{ "type": "Feature", "properties": { "address": "8500 ESSINGTON AVE", "year": 2010.0, "permitdescription": "ALTERATION PERMIT" }, "geometry": { "type": "Point", "coordinates": [ -75.23177486305697, 39.880338135909604 ] } },
{ "type": "Feature", "properties": { "address": "8500 ESSINGTON AVE", "year": 2009.0, "permitdescription": "ALTERATION PERMIT" }, "geometry": { "type": "Point", "coordinates": [ -75.23177486305697, 39.880338135909604 ] } },
{ "type": "Feature", "properties": { "address": "8500 ESSINGTON AVE", "year": 2008.0, "permitdescription": "ALTERATION PERMIT" }, "geometry": { "type": "Point", "coordinates": [ -75.23177486305697, 39.880338135909604 ] } },
{ "type": "Feature", "properties": { "address": "8500 ESSINGTON AVE", "year": 2013.0, "permitdescription": "ALTERATION PERMIT" }, "geometry": { "type": "Point", "coordinates": [ -75.23177486305697, 39.880338135909604 ] } },
{ "type": "Feature", "properties": { "address": "8500 ESSINGTON AVE", "year": 2013.0, "permitdescription": "ALTERATION PERMIT" }, "geometry": { "type": "Point", "coordinates": [ -75.23177486305697, 39.880338135909604 ] } },
{ "type": "Feature", "properties": { "address": "8500 ESSINGTON AVE", "year": 2009.0, "permitdescription": "ALTERATION PERMIT" }, "geometry": { "type": "Point", "coordinates": [ -75.23177486305697, 39.880338135909604 ] } },
{ "type": "Feature", "properties": { "address": "8500 ESSINGTON AVE", "year": 2012.0, "permitdescription": "ALTERATION PERMIT" }, "geometry": { "type": "Point", "coordinates": [ -75.23177486305697, 39.880338135909604 ] } },
{ "type": "Feature", "properties": { "address": "8500 ESSINGTON AVE", "year": 2013.0, "permitdescription": "ALTERATION PERMIT" }, "geometry": { "type": "Point", "coordinates": [ -75.23177486305697, 39.880338135909604 ] } },
{ "type": "Feature", "properties": { "address": "8500 ESSINGTON AVE", "year": 2008.0, "permitdescription": "ALTERATION PERMIT" }, "geometry": { "type": "Point", "coordinates": [ -75.23177486305697, 39.880338135909604 ] } },
{ "type": "Feature", "properties": { "address": "8500 ESSINGTON AVE", "year": 2014.0, "permitdescription": "ALTERATION PERMIT" }, "geometry": { "type": "Point", "coordinates": [ -75.23177486305697, 39.880338135909604 ] } },
{ "type": "Feature", "properties": { "address": "8500 ESSINGTON AVE", "year": 2010.0, "permitdescription": "ALTERATION PERMIT" }, "geometry": { "type": "Point", "coordinates": [ -75.23177486305697, 39.880338135909604 ] } },
{ "type": "Feature", "properties": { "address": "8500 ESSINGTON AVE", "year": 2012.0, "permitdescription": "ALTERATION PERMIT" }, "geometry": { "type": "Point", "coordinates": [ -75.23177486305697, 39.880338135909604 ] } },
{ "type": "Feature", "properties": { "address": "8500 ESSINGTON AVE", "year": 2010.0, "permitdescription": "ALTERATION PERMIT" }, "geometry": { "type": "Point", "coordinates": [ -75.23177486305697, 39.880338135909604 ] } },
{ "type": "Feature", "properties": { "address": "8500 ESSINGTON AVE", "year": 2012.0, "permitdescription": "ALTERATION PERMIT" }, "geometry": { "type": "Point", "coordinates": [ -75.23177486305697, 39.880338135909604 ] } },
{ "type": "Feature", "properties": { "address": "8500 ESSINGTON AVE", "year": 2015.0, "permitdescription": "ALTERATION PERMIT" }, "geometry": { "type": "Point", "coordinates": [ -75.23177486305697, 39.880338135909604 ] } },
{ "type": "Feature", "properties": { "address": "8500 ESSINGTON AVE", "year": 2010.0, "permitdescription": "ALTERATION PERMIT" }, "geometry": { "type": "Point", "coordinates": [ -75.23177486305697, 39.880338135909604 ] } },
{ "type": "Feature", "properties": { "address": "8500 ESSINGTON AVE", "year": 2011.0, "permitdescription": "ALTERATION PERMIT" }, "geometry": { "type": "Point", "coordinates": [ -75.23177486305697, 39.880338135909604 ] } },
{ "type": "Feature", "properties": { "address": "8500 ESSINGTON AVE", "year": 2013.0, "permitdescription": "ALTERATION PERMIT" }, "geometry": { "type": "Point", "coordinates": [ -75.23177486305697, 39.880338135909604 ] } },
{ "type": "Feature", "properties": { "address": "8500 ESSINGTON AVE", "year": 2013.0, "permitdescription": "ALTERATION PERMIT" }, "geometry": { "type": "Point", "coordinates": [ -75.23177486305697, 39.880338135909604 ] } },
{ "type": "Feature", "properties": { "address": "8500 ESSINGTON AVE", "year": 2012.0, "permitdescription": "ALTERATION PERMIT" }, "geometry": { "type": "Point", "coordinates": [ -75.23177486305697, 39.880338135909604 ] } },
{ "type": "Feature", "properties": { "address": "8500 ESSINGTON AVE", "year": 2013.0, "permitdescription": "ALTERATION PERMIT" }, "geometry": { "type": "Point", "coordinates": [ -75.23177486305697, 39.880338135909604 ] } },
{ "type": "Feature", "properties": { "address": "8500 ESSINGTON AVE", "year": 2008.0, "permitdescription": "ALTERATION PERMIT" }, "geometry": { "type": "Point", "coordinates": [ -75.23177486305697, 39.880338135909604 ] } },
{ "type": "Feature", "properties": { "address": "8500 ESSINGTON AVE", "year": 2011.0, "permitdescription": "ALTERATION PERMIT" }, "geometry": { "type": "Point", "coordinates": [ -75.23177486305697, 39.880338135909604 ] } },
{ "type": "Feature", "properties": { "address": "8500 ESSINGTON AVE", "year": 2013.0, "permitdescription": "ALTERATION PERMIT" }, "geometry": { "type": "Point", "coordinates": [ -75.23177486305697, 39.880338135909604 ] } },
{ "type": "Feature", "properties": { "address": "8500 ESSINGTON AVE", "year": 2011.0, "permitdescription": "ALTERATION PERMIT" }, "geometry": { "type": "Point", "coordinates": [ -75.23177486305697, 39.880338135909604 ] } },
{ "type": "Feature", "properties": { "address": "8500 ESSINGTON AVE", "year": 2009.0, "permitdescription": "ALTERATION PERMIT" }, "geometry": { "type": "Point", "coordinates": [ -75.23177486305697, 39.880338135909604 ] } },
{ "type": "Feature", "properties": { "address": "8500 ESSINGTON AVE", "year": 2014.0, "permitdescription": "ALTERATION PERMIT" }, "geometry": { "type": "Point", "coordinates": [ -75.23177486305697, 39.880338135909604 ] } },
{ "type": "Feature", "properties": { "address": "8500 ESSINGTON AVE", "year": 2014.0, "permitdescription": "ALTERATION PERMIT" }, "geometry": { "type": "Point", "coordinates": [ -75.23177486305697, 39.880338135909604 ] } },
{ "type": "Feature", "properties": { "address": "8500 ESSINGTON AVE", "year": 2012.0, "permitdescription": "ALTERATION PERMIT" }, "geometry": { "type": "Point", "coordinates": [ -75.23177486305697, 39.880338135909604 ] } },
{ "type": "Feature", "properties": { "address": "8500 ESSINGTON AVE", "year": 2010.0, "permitdescription": "ALTERATION PERMIT" }, "geometry": { "type": "Point", "coordinates": [ -75.23177486305697, 39.880338135909604 ] } },
{ "type": "Feature", "properties": { "address": "8500 ESSINGTON AVE", "year": 2011.0, "permitdescription": "ALTERATION PERMIT" }, "geometry": { "type": "Point", "coordinates": [ -75.23177486305697, 39.880338135909604 ] } },
{ "type": "Feature", "properties": { "address": "8500 ESSINGTON AVE", "year": 2010.0, "permitdescription": "ALTERATION PERMIT" }, "geometry": { "type": "Point", "coordinates": [ -75.23177486305697, 39.880338135909604 ] } },
{ "type": "Feature", "properties": { "address": "8500 ESSINGTON AVE", "year": 2008.0, "permitdescription": "ALTERATION PERMIT" }, "geometry": { "type": "Point", "coordinates": [ -75.23177486305697, 39.880338135909604 ] } },
{ "type": "Feature", "properties": { "address": "8500 ESSINGTON AVE", "year": 2012.0, "permitdescription": "ALTERATION PERMIT" }, "geometry": { "type": "Point", "coordinates": [ -75.23177486305697, 39.880338135909604 ] } },
{ "type": "Feature", "properties": { "address": "8500 ESSINGTON AVE", "year": 2009.0, "permitdescription": "ALTERATION PERMIT" }, "geometry": { "type": "Point", "coordinates": [ -75.23177486305697, 39.880338135909604 ] } },
{ "type": "Feature", "properties": { "address": "8500 ESSINGTON AVE", "year": 2008.0, "permitdescription": "ALTERATION PERMIT" }, "geometry": { "type": "Point", "coordinates": [ -75.23177486305697, 39.880338135909604 ] } },
{ "type": "Feature", "properties": { "address": "8500 ESSINGTON AVE", "year": 2009.0, "permitdescription": "ALTERATION PERMIT" }, "geometry": { "type": "Point", "coordinates": [ -75.23177486305697, 39.880338135909604 ] } },
{ "type": "Feature", "properties": { "address": "8500 ESSINGTON AVE", "year": 2008.0, "permitdescription": "ALTERATION PERMIT" }, "geometry": { "type": "Point", "coordinates": [ -75.23177486305697, 39.880338135909604 ] } },
{ "type": "Feature", "properties": { "address": "8500 ESSINGTON AVE", "year": 2014.0, "permitdescription": "ALTERATION PERMIT" }, "geometry": { "type": "Point", "coordinates": [ -75.23177486305697, 39.880338135909604 ] } },
{ "type": "Feature", "properties": { "address": "8500 ESSINGTON AVE", "year": 2011.0, "permitdescription": "ALTERATION PERMIT" }, "geometry": { "type": "Point", "coordinates": [ -75.23177486305697, 39.880338135909604 ] } },
{ "type": "Feature", "properties": { "address": "8500 ESSINGTON AVE", "year": 2011.0, "permitdescription": "ALTERATION PERMIT" }, "geometry": { "type": "Point", "coordinates": [ -75.23177486305697, 39.880338135909604 ] } },
{ "type": "Feature", "properties": { "address": "8500 ESSINGTON AVE", "year": 2009.0, "permitdescription": "ALTERATION PERMIT" }, "geometry": { "type": "Point", "coordinates": [ -75.23177486305697, 39.880338135909604 ] } },
{ "type": "Feature", "properties": { "address": "8500 ESSINGTON AVE", "year": 2008.0, "permitdescription": "ALTERATION PERMIT" }, "geometry": { "type": "Point", "coordinates": [ -75.23177486305697, 39.880338135909604 ] } },
{ "type": "Feature", "properties": { "address": "8500 ESSINGTON AVE", "year": 2011.0, "permitdescription": "ALTERATION PERMIT" }, "geometry": { "type": "Point", "coordinates": [ -75.23177486305697, 39.880338135909604 ] } },
{ "type": "Feature", "properties": { "address": "8500 ESSINGTON AVE", "year": 2009.0, "permitdescription": "ALTERATION PERMIT" }, "geometry": { "type": "Point", "coordinates": [ -75.23177486305697, 39.880338135909604 ] } },
{ "type": "Feature", "properties": { "address": "8500 ESSINGTON AVE", "year": 2009.0, "permitdescription": "ALTERATION PERMIT" }, "geometry": { "type": "Point", "coordinates": [ -75.23177486305697, 39.880338135909604 ] } },
{ "type": "Feature", "properties": { "address": "8500 ESSINGTON AVE", "year": 2013.0, "permitdescription": "ALTERATION PERMIT" }, "geometry": { "type": "Point", "coordinates": [ -75.23177486305697, 39.880338135909604 ] } },
{ "type": "Feature", "properties": { "address": "8500 ESSINGTON AVE", "year": 2012.0, "permitdescription": "ALTERATION PERMIT" }, "geometry": { "type": "Point", "coordinates": [ -75.23177486305697, 39.880338135909604 ] } },
{ "type": "Feature", "properties": { "address": "8500 ESSINGTON AVE", "year": 2008.0, "permitdescription": "ALTERATION PERMIT" }, "geometry": { "type": "Point", "coordinates": [ -75.23177486305697, 39.880338135909604 ] } },
{ "type": "Feature", "properties": { "address": "8500 ESSINGTON AVE", "year": 2008.0, "permitdescription": "ALTERATION PERMIT" }, "geometry": { "type": "Point", "coordinates": [ -75.23177486305697, 39.880338135909604 ] } },
{ "type": "Feature", "properties": { "address": "8500 ESSINGTON AVE", "year": 2010.0, "permitdescription": "ALTERATION PERMIT" }, "geometry": { "type": "Point", "coordinates": [ -75.23177486305697, 39.880338135909604 ] } },
{ "type": "Feature", "properties": { "address": "8500 ESSINGTON AVE", "year": 2009.0, "permitdescription": "ALTERATION PERMIT" }, "geometry": { "type": "Point", "coordinates": [ -75.23177486305697, 39.880338135909604 ] } },
{ "type": "Feature", "properties": { "address": "8500 ESSINGTON AVE", "year": 2009.0, "permitdescription": "ALTERATION PERMIT" }, "geometry": { "type": "Point", "coordinates": [ -75.23177486305697, 39.880338135909604 ] } },
{ "type": "Feature", "properties": { "address": "8500 ESSINGTON AVE", "year": 2015.0, "permitdescription": "ALTERATION PERMIT" }, "geometry": { "type": "Point", "coordinates": [ -75.23177486305697, 39.880338135909604 ] } },
{ "type": "Feature", "properties": { "address": "8500 ESSINGTON AVE", "year": 2009.0, "permitdescription": "ALTERATION PERMIT" }, "geometry": { "type": "Point", "coordinates": [ -75.23177486305697, 39.880338135909604 ] } },
{ "type": "Feature", "properties": { "address": "8500 ESSINGTON AVE", "year": 2009.0, "permitdescription": "ALTERATION PERMIT" }, "geometry": { "type": "Point", "coordinates": [ -75.23177486305697, 39.880338135909604 ] } },
{ "type": "Feature", "properties": { "address": "8500 ESSINGTON AVE", "year": 2013.0, "permitdescription": "ALTERATION PERMIT" }, "geometry": { "type": "Point", "coordinates": [ -75.23177486305697, 39.880338135909604 ] } },
{ "type": "Feature", "properties": { "address": "8500 ESSINGTON AVE", "year": 2013.0, "permitdescription": "ALTERATION PERMIT" }, "geometry": { "type": "Point", "coordinates": [ -75.23177486305697, 39.880338135909604 ] } },
{ "type": "Feature", "properties": { "address": "8900 BARTRAM AVE", "year": 2011.0, "permitdescription": "ALTERATION PERMIT" }, "geometry": { "type": "Point", "coordinates": [ -75.249023470380294, 39.885358449973161 ] } },
{ "type": "Feature", "properties": { "address": "8401 ESCORT ST", "year": 2014.0, "permitdescription": "ALTERATION PERMIT" }, "geometry": { "type": "Point", "coordinates": [ -75.229506013904668, 39.885109234231336 ] } },
{ "type": "Feature", "properties": { "address": "8880 BARTRAM AVE", "year": 2013.0, "permitdescription": "ALTERATION PERMIT" }, "geometry": { "type": "Point", "coordinates": [ -75.248122545864788, 39.886300991048003 ] } },
{ "type": "Feature", "properties": { "address": "8800 TINICUM BLVD", "year": 2013.0, "permitdescription": "ALTERATION PERMIT" }, "geometry": { "type": "Point", "coordinates": [ -75.245445250917655, 39.886405983644856 ] } },
{ "type": "Feature", "properties": { "address": "1900 KITTY HAWK AVE", "year": 2015.0, "permitdescription": "ALTERATION PERMIT" }, "geometry": { "type": "Point", "coordinates": [ -75.185785555290948, 39.887988238141801 ] } },
{ "type": "Feature", "properties": { "address": "5101 S BROAD ST", "year": 2008.0, "permitdescription": "ALTERATION PERMIT" }, "geometry": { "type": "Point", "coordinates": [ -75.175688576003822, 39.8887160724626 ] } },
{ "type": "Feature", "properties": { "address": "8605 DICKS PL", "year": 2011.0, "permitdescription": "ALTERATION PERMIT" }, "geometry": { "type": "Point", "coordinates": [ -75.254855895804837, 39.894017906452568 ] } },
{ "type": "Feature", "properties": { "address": "2751 S 86TH ST", "year": 2011.0, "permitdescription": "ALTERATION PERMIT" }, "geometry": { "type": "Point", "coordinates": [ -75.252119437029293, 39.893657751190162 ] } },
{ "type": "Feature", "properties": { "address": "8432 LYONS PL", "year": 2014.0, "permitdescription": "ALTERATION PERMIT" }, "geometry": { "type": "Point", "coordinates": [ -75.250500836209852, 39.894696736345544 ] } },
{ "type": "Feature", "properties": { "address": "8433 GIBBS PL", "year": 2013.0, "permitdescription": "ALTERATION PERMIT" }, "geometry": { "type": "Point", "coordinates": [ -75.250236154623906, 39.894557599630318 ] } },
{ "type": "Feature", "properties": { "address": "8201 TINICUM AVE", "year": 2015.0, "permitdescription": "ALTERATION PERMIT" }, "geometry": { "type": "Point", "coordinates": [ -75.238364072811876, 39.893492505472075 ] } },
{ "type": "Feature", "properties": { "address": "4301 ISLAND AVE", "year": 2013.0, "permitdescription": "ALTERATION PERMIT" }, "geometry": { "type": "Point", "coordinates": [ -75.233682082986405, 39.890900980294077 ] } },
{ "type": "Feature", "properties": { "address": "4101 ISLAND AVE", "year": 2008.0, "permitdescription": "ALTERATION PERMIT" }, "geometry": { "type": "Point", "coordinates": [ -75.231462424521311, 39.891252364221295 ] } },
{ "type": "Feature", "properties": { "address": "4101 ISLAND AVE", "year": 2010.0, "permitdescription": "ALTERATION PERMIT" }, "geometry": { "type": "Point", "coordinates": [ -75.231462424521311, 39.891252364221295 ] } },
{ "type": "Feature", "properties": { "address": "4101 ISLAND AVE", "year": 2015.0, "permitdescription": "ALTERATION PERMIT" }, "geometry": { "type": "Point", "coordinates": [ -75.231462424521311, 39.891252364221295 ] } },
{ "type": "Feature", "properties": { "address": "4101 ISLAND AVE", "year": 2012.0, "permitdescription": "ALTERATION PERMIT" }, "geometry": { "type": "Point", "coordinates": [ -75.231462424521311, 39.891252364221295 ] } },
{ "type": "Feature", "properties": { "address": "1400 KITTY HAWK AVE", "year": 2013.0, "permitdescription": "ALTERATION PERMIT" }, "geometry": { "type": "Point", "coordinates": [ -75.186889003932706, 39.890288352126646 ] } },
{ "type": "Feature", "properties": { "address": "1491 KITTY HAWK AVE", "year": 2010.0, "permitdescription": "ALTERATION PERMIT" }, "geometry": { "type": "Point", "coordinates": [ -75.176450559812011, 39.890012852526517 ] } },
{ "type": "Feature", "properties": { "address": "4700 S 13TH ST", "year": 2010.0, "permitdescription": "ALTERATION PERMIT" }, "geometry": { "type": "Point", "coordinates": [ -75.174407068976649, 39.893177234133013 ] } },
{ "type": "Feature", "properties": { "address": "4499 S BROAD ST", "year": 2008.0, "permitdescription": "ALTERATION PERMIT" }, "geometry": { "type": "Point", "coordinates": [ -75.172032842790287, 39.891727953536432 ] } },
{ "type": "Feature", "properties": { "address": "4499 S BROAD ST", "year": 2009.0, "permitdescription": "ALTERATION PERMIT" }, "geometry": { "type": "Point", "coordinates": [ -75.172032842790287, 39.891727953536432 ] } },
{ "type": "Feature", "properties": { "address": "4499 S BROAD ST", "year": 2009.0, "permitdescription": "ALTERATION PERMIT" }, "geometry": { "type": "Point", "coordinates": [ -75.172032842790287, 39.891727953536432 ] } },
{ "type": "Feature", "properties": { "address": "4900 S 12TH ST", "year": 2012.0, "permitdescription": "ALTERATION PERMIT" }, "geometry": { "type": "Point", "coordinates": [ -75.172411459346804, 39.891229018945815 ] } },
{ "type": "Feature", "properties": { "address": "4499 S BROAD ST", "year": 2010.0, "permitdescription": "ALTERATION PERMIT" }, "geometry": { "type": "Point", "coordinates": [ -75.172032842790287, 39.891727953536432 ] } },
{ "type": "Feature", "properties": { "address": "8403 LYONS PL", "year": 2011.0, "permitdescription": "ALTERATION PERMIT" }, "geometry": { "type": "Point", "coordinates": [ -75.250140239613856, 39.895809579895065 ] } },
{ "type": "Feature", "properties": { "address": "8400 GIBBS PL", "year": 2010.0, "permitdescription": "ALTERATION PERMIT" }, "geometry": { "type": "Point", "coordinates": [ -75.248901085927585, 39.895266406196789 ] } },
{ "type": "Feature", "properties": { "address": "8427 LYONS PL", "year": 2010.0, "permitdescription": "ALTERATION PERMIT" }, "geometry": { "type": "Point", "coordinates": [ -75.250722378157363, 39.895164370595602 ] } },
{ "type": "Feature", "properties": { "address": "2801 S 84TH ST", "year": 2011.0, "permitdescription": "ALTERATION PERMIT" }, "geometry": { "type": "Point", "coordinates": [ -75.2462622710067, 39.89592567449192 ] } },
{ "type": "Feature", "properties": { "address": "7800 HOLSTEIN AVE", "year": 2014.0, "permitdescription": "ALTERATION PERMIT" }, "geometry": { "type": "Point", "coordinates": [ -75.231976023818746, 39.896694064016998 ] } },
{ "type": "Feature", "properties": { "address": "1 CRESCENT DR", "year": 2011.0, "permitdescription": "ALTERATION PERMIT" }, "geometry": { "type": "Point", "coordinates": [ -75.174736442100283, 39.89487747339826 ] } },
{ "type": "Feature", "properties": { "address": "1 CRESCENT DR", "year": 2012.0, "permitdescription": "ALTERATION PERMIT" }, "geometry": { "type": "Point", "coordinates": [ -75.174736442100283, 39.89487747339826 ] } },
{ "type": "Feature", "properties": { "address": "1 CRESCENT DR", "year": 2012.0, "permitdescription": "ALTERATION PERMIT" }, "geometry": { "type": "Point", "coordinates": [ -75.174736442100283, 39.89487747339826 ] } },
{ "type": "Feature", "properties": { "address": "1 CRESCENT DR", "year": 2008.0, "permitdescription": "ALTERATION PERMIT" }, "geometry": { "type": "Point", "coordinates": [ -75.174736442100283, 39.89487747339826 ] } },
{ "type": "Feature", "properties": { "address": "1 CRESCENT DR", "year": 2011.0, "permitdescription": "ALTERATION PERMIT" }, "geometry": { "type": "Point", "coordinates": [ -75.174736442100283, 39.89487747339826 ] } },
{ "type": "Feature", "properties": { "address": "3 CRESCENT DR", "year": 2014.0, "permitdescription": "ALTERATION PERMIT" }, "geometry": { "type": "Point", "coordinates": [ -75.173521344979363, 39.895078936184269 ] } },
{ "type": "Feature", "properties": { "address": "3 CRESCENT DR", "year": 2015.0, "permitdescription": "ALTERATION PERMIT" }, "geometry": { "type": "Point", "coordinates": [ -75.173521344979363, 39.895078936184269 ] } },
{ "type": "Feature", "properties": { "address": "4751 LEAGUE ISLAND BLVD", "year": 2011.0, "permitdescription": "ALTERATION PERMIT" }, "geometry": { "type": "Point", "coordinates": [ -75.16529622238231, 39.893362584591287 ] } },
{ "type": "Feature", "properties": { "address": "4751 LEAGUE ISLAND BLVD", "year": 2010.0, "permitdescription": "ALTERATION PERMIT" }, "geometry": { "type": "Point", "coordinates": [ -75.16529622238231, 39.893362584591287 ] } },
{ "type": "Feature", "properties": { "address": "8017 MARS PL", "year": 2014.0, "permitdescription": "ALTERATION PERMIT" }, "geometry": { "type": "Point", "coordinates": [ -75.251013778143601, 39.903667920820851 ] } },
{ "type": "Feature", "properties": { "address": "8145 CHELWYNDE AVE", "year": 2015.0, "permitdescription": "ALTERATION PERMIT" }, "geometry": { "type": "Point", "coordinates": [ -75.251349659376061, 39.900784959538512 ] } },
{ "type": "Feature", "properties": { "address": "8121 ANGELO PL", "year": 2015.0, "permitdescription": "ALTERATION PERMIT" }, "geometry": { "type": "Point", "coordinates": [ -75.252694708644171, 39.901806140678261 ] } },
{ "type": "Feature", "properties": { "address": "8021 POMPEY PL", "year": 2015.0, "permitdescription": "ALTERATION PERMIT" }, "geometry": { "type": "Point", "coordinates": [ -75.249273299233721, 39.902034424918114 ] } },
{ "type": "Feature", "properties": { "address": "2625 CAESAR PL", "year": 2013.0, "permitdescription": "ALTERATION PERMIT" }, "geometry": { "type": "Point", "coordinates": [ -75.249600630035971, 39.901906567822806 ] } },
{ "type": "Feature", "properties": { "address": "2605 S 83RD ST", "year": 2015.0, "permitdescription": "ALTERATION PERMIT" }, "geometry": { "type": "Point", "coordinates": [ -75.252394664520978, 39.899528665444244 ] } },
{ "type": "Feature", "properties": { "address": "2612 S 80TH ST", "year": 2014.0, "permitdescription": "ALTERATION PERMIT" }, "geometry": { "type": "Point", "coordinates": [ -75.249416184015828, 39.903154872147589 ] } },
{ "type": "Feature", "properties": { "address": "8029 MARS PL", "year": 2012.0, "permitdescription": "ALTERATION PERMIT" }, "geometry": { "type": "Point", "coordinates": [ -75.251274655939042, 39.903377214428168 ] } },
{ "type": "Feature", "properties": { "address": "8010 GROVERS AVE", "year": 2009.0, "permitdescription": "ALTERATION PERMIT" }, "geometry": { "type": "Point", "coordinates": [ -75.246349844916537, 39.901160227860146 ] } },
{ "type": "Feature", "properties": { "address": "8025 LYONS AVE", "year": 2011.0, "permitdescription": "ALTERATION PERMIT" }, "geometry": { "type": "Point", "coordinates": [ -75.245526121243117, 39.900161592617565 ] } },
{ "type": "Feature", "properties": { "address": "3000 ISLAND AVE", "year": 2011.0, "permitdescription": "ALTERATION PERMIT" }, "geometry": { "type": "Point", "coordinates": [ -75.240633304922937, 39.899936437188138 ] } },
{ "type": "Feature", "properties": { "address": "3000 ISLAND AVE", "year": 2012.0, "permitdescription": "ALTERATION PERMIT" }, "geometry": { "type": "Point", "coordinates": [ -75.240633304922937, 39.899936437188138 ] } },
{ "type": "Feature", "properties": { "address": "3000 ISLAND AVE", "year": 2008.0, "permitdescription": "ALTERATION PERMIT" }, "geometry": { "type": "Point", "coordinates": [ -75.240633304922937, 39.899936437188138 ] } },
{ "type": "Feature", "properties": { "address": "2901 ISLAND AVE", "year": 2013.0, "permitdescription": "ALTERATION PERMIT" }, "geometry": { "type": "Point", "coordinates": [ -75.238822065486659, 39.902811521261306 ] } },
{ "type": "Feature", "properties": { "address": "2900 ISLAND AVE", "year": 2010.0, "permitdescription": "ALTERATION PERMIT" }, "geometry": { "type": "Point", "coordinates": [ -75.241634699442827, 39.902429787223085 ] } },
{ "type": "Feature", "properties": { "address": "2900 ISLAND AVE", "year": 2014.0, "permitdescription": "ALTERATION PERMIT" }, "geometry": { "type": "Point", "coordinates": [ -75.240658489021527, 39.903313859155006 ] } },
{ "type": "Feature", "properties": { "address": "3250 S 76TH ST", "year": 2008.0, "permitdescription": "ALTERATION PERMIT" }, "geometry": { "type": "Point", "coordinates": [ -75.232131384079182, 39.900608054205584 ] } },
{ "type": "Feature", "properties": { "address": "7777 BREWSTER AVE", "year": 2015.0, "permitdescription": "ALTERATION PERMIT" }, "geometry": { "type": "Point", "coordinates": [ -75.235061997025895, 39.9009744914339 ] } },
{ "type": "Feature", "properties": { "address": "3501 ISLAND AVE", "year": 2011.0, "permitdescription": "ALTERATION PERMIT" }, "geometry": { "type": "Point", "coordinates": [ -75.236556060106352, 39.899115563578725 ] } },
{ "type": "Feature", "properties": { "address": "3250 S 76TH ST", "year": 2014.0, "permitdescription": "ALTERATION PERMIT" }, "geometry": { "type": "Point", "coordinates": [ -75.232131384079182, 39.900608054205584 ] } },
{ "type": "Feature", "properties": { "address": "7401 HOLSTEIN AVE", "year": 2012.0, "permitdescription": "ALTERATION PERMIT" }, "geometry": { "type": "Point", "coordinates": [ -75.229057915310804, 39.903234292678981 ] } },
{ "type": "Feature", "properties": { "address": "3601 S BROAD ST", "year": 2011.0, "permitdescription": "ALTERATION PERMIT" }, "geometry": { "type": "Point", "coordinates": [ -75.171805810819279, 39.901853960899459 ] } },
{ "type": "Feature", "properties": { "address": "3601 S BROAD ST", "year": 2009.0, "permitdescription": "ALTERATION PERMIT" }, "geometry": { "type": "Point", "coordinates": [ -75.171805810819279, 39.901853960899459 ] } },
{ "type": "Feature", "properties": { "address": "3601 S BROAD ST", "year": 2010.0, "permitdescription": "ALTERATION PERMIT" }, "geometry": { "type": "Point", "coordinates": [ -75.171805810819279, 39.901853960899459 ] } },
{ "type": "Feature", "properties": { "address": "3601 S BROAD ST", "year": 2011.0, "permitdescription": "ALTERATION PERMIT" }, "geometry": { "type": "Point", "coordinates": [ -75.171805810819279, 39.901853960899459 ] } },
{ "type": "Feature", "properties": { "address": "3601 S BROAD ST", "year": 2011.0, "permitdescription": "ALTERATION PERMIT" }, "geometry": { "type": "Point", "coordinates": [ -75.171805810819279, 39.901853960899459 ] } },
{ "type": "Feature", "properties": { "address": "3601 S BROAD ST", "year": 2012.0, "permitdescription": "ALTERATION PERMIT" }, "geometry": { "type": "Point", "coordinates": [ -75.171805810819279, 39.901853960899459 ] } },
{ "type": "Feature", "properties": { "address": "3601 S BROAD ST", "year": 2012.0, "permitdescription": "ALTERATION PERMIT" }, "geometry": { "type": "Point", "coordinates": [ -75.171805810819279, 39.901853960899459 ] } },
{ "type": "Feature", "properties": { "address": "1020 PATTISON AVE", "year": 2013.0, "permitdescription": "ALTERATION PERMIT" }, "geometry": { "type": "Point", "coordinates": [ -75.167192258754937, 39.90181164838355 ] } },
{ "type": "Feature", "properties": { "address": "1020 PATTISON AVE", "year": 2013.0, "permitdescription": "ALTERATION PERMIT" }, "geometry": { "type": "Point", "coordinates": [ -75.167192258754937, 39.90181164838355 ] } },
{ "type": "Feature", "properties": { "address": "1020 PATTISON AVE", "year": 2013.0, "permitdescription": "ALTERATION PERMIT" }, "geometry": { "type": "Point", "coordinates": [ -75.167192258754937, 39.90181164838355 ] } },
{ "type": "Feature", "properties": { "address": "1020 PATTISON AVE", "year": 2012.0, "permitdescription": "ALTERATION PERMIT" }, "geometry": { "type": "Point", "coordinates": [ -75.167192258754937, 39.90181164838355 ] } },
{ "type": "Feature", "properties": { "address": "1020 PATTISON AVE", "year": 2008.0, "permitdescription": "ALTERATION PERMIT" }, "geometry": { "type": "Point", "coordinates": [ -75.167192258754937, 39.90181164838355 ] } },
{ "type": "Feature", "properties": { "address": "7723 BUIST AVE", "year": 2012.0, "permitdescription": "ALTERATION PERMIT" }, "geometry": { "type": "Point", "coordinates": [ -75.247090028131467, 39.906980183139325 ] } },
{ "type": "Feature", "properties": { "address": "2622 CHELWYNDE PL", "year": 2014.0, "permitdescription": "ALTERATION PERMIT" }, "geometry": { "type": "Point", "coordinates": [ -75.24512644059557, 39.906971884284012 ] } },
{ "type": "Feature", "properties": { "address": "7701 BUIST AVE", "year": 2010.0, "permitdescription": "ALTERATION PERMIT" }, "geometry": { "type": "Point", "coordinates": [ -75.246579192715785, 39.907483927020266 ] } },
{ "type": "Feature", "properties": { "address": "7610 JAY PL", "year": 2014.0, "permitdescription": "ALTERATION PERMIT" }, "geometry": { "type": "Point", "coordinates": [ -75.242829692622649, 39.907049490017357 ] } },
{ "type": "Feature", "properties": { "address": "7721 OLYMPUS PL", "year": 2013.0, "permitdescription": "ALTERATION PERMIT" }, "geometry": { "type": "Point", "coordinates": [ -75.244375571894267, 39.905108755206406 ] } },
{ "type": "Feature", "properties": { "address": "7717 ORPHEUS PL", "year": 2014.0, "permitdescription": "ALTERATION PERMIT" }, "geometry": { "type": "Point", "coordinates": [ -75.245407605661683, 39.906199332480419 ] } },
{ "type": "Feature", "properties": { "address": "7815 BUIST AVE", "year": 2012.0, "permitdescription": "ALTERATION PERMIT" }, "geometry": { "type": "Point", "coordinates": [ -75.248060932834747, 39.905830646518751 ] } },
{ "type": "Feature", "properties": { "address": "2515 S 78TH ST", "year": 2009.0, "permitdescription": "ALTERATION PERMIT" }, "geometry": { "type": "Point", "coordinates": [ -75.247852783442156, 39.907297288489062 ] } },
{ "type": "Feature", "properties": { "address": "7620 LINDBERGH BLVD", "year": 2014.0, "permitdescription": "ALTERATION PERMIT" }, "geometry": { "type": "Point", "coordinates": [ -75.239072646217082, 39.903718347423698 ] } },
{ "type": "Feature", "properties": { "address": "2821-31 ISLAND AVE", "year": 2009.0, "permitdescription": "ALTERATION PERMIT" }, "geometry": { "type": "Point", "coordinates": [ -75.239501432479159, 39.906810328924053 ] } },
{ "type": "Feature", "properties": { "address": "7601-51 LINDBERGH BLVD", "year": 2011.0, "permitdescription": "ALTERATION PERMIT" }, "geometry": { "type": "Point", "coordinates": [ -75.239234766514869, 39.905008714913059 ] } },
{ "type": "Feature", "properties": { "address": "7520 TURNSTONE PL", "year": 2012.0, "permitdescription": "ALTERATION PERMIT" }, "geometry": { "type": "Point", "coordinates": [ -75.240080142115232, 39.907509681737679 ] } },
{ "type": "Feature", "properties": { "address": "7620 LINDBERGH BLVD", "year": 2009.0, "permitdescription": "ALTERATION PERMIT" }, "geometry": { "type": "Point", "coordinates": [ -75.239072646217082, 39.903718347423698 ] } },
{ "type": "Feature", "properties": { "address": "7601-51 LINDBERGH BLVD", "year": 2011.0, "permitdescription": "ALTERATION PERMIT" }, "geometry": { "type": "Point", "coordinates": [ -75.239234766514869, 39.905008714913059 ] } },
{ "type": "Feature", "properties": { "address": "6815 ESSINGTON AVE", "year": 2014.0, "permitdescription": "ALTERATION PERMIT" }, "geometry": { "type": "Point", "coordinates": [ -75.22583502205616, 39.906387324864042 ] } },
{ "type": "Feature", "properties": { "address": "6915 ESSINGTON AVE", "year": 2013.0, "permitdescription": "ALTERATION PERMIT" }, "geometry": { "type": "Point", "coordinates": [ -75.224897402950532, 39.905465558659273 ] } },
{ "type": "Feature", "properties": { "address": "6915 ESSINGTON AVE", "year": 2015.0, "permitdescription": "ALTERATION PERMIT" }, "geometry": { "type": "Point", "coordinates": [ -75.224897402950532, 39.905465558659273 ] } },
{ "type": "Feature", "properties": { "address": "2600 PENROSE FERRY RD", "year": 2011.0, "permitdescription": "ALTERATION PERMIT" }, "geometry": { "type": "Point", "coordinates": [ -75.196891095660646, 39.903709493351847 ] } },
{ "type": "Feature", "properties": { "address": "3600 GATEWAY DR", "year": 2008.0, "permitdescription": "ALTERATION PERMIT" }, "geometry": { "type": "Point", "coordinates": [ -75.191846907449786, 39.90582953108575 ] } },
{ "type": "Feature", "properties": { "address": "1 CITIZENS BANK WAY", "year": 2008.0, "permitdescription": "ALTERATION PERMIT" }, "geometry": { "type": "Point", "coordinates": [ -75.166309938234718, 39.905802085879955 ] } },
{ "type": "Feature", "properties": { "address": "1 CITIZENS BANK WAY", "year": 2015.0, "permitdescription": "ALTERATION PERMIT" }, "geometry": { "type": "Point", "coordinates": [ -75.166309938234718, 39.905802085879955 ] } },
{ "type": "Feature", "properties": { "address": "1 CITIZENS BANK WAY", "year": 2011.0, "permitdescription": "ALTERATION PERMIT" }, "geometry": { "type": "Point", "coordinates": [ -75.166309938234718, 39.905802085879955 ] } },
{ "type": "Feature", "properties": { "address": "3445 S FRONT ST", "year": 2015.0, "permitdescription": "ALTERATION PERMIT" }, "geometry": { "type": "Point", "coordinates": [ -75.151248823442813, 39.903469009523583 ] } },
{ "type": "Feature", "properties": { "address": "2908 S CHRISTOPHER COLUMBUS BLVD", "year": 2008.0, "permitdescription": "ALTERATION PERMIT" }, "geometry": { "type": "Point", "coordinates": [ -75.141400187177112, 39.905244616728829 ] } },
{ "type": "Feature", "properties": { "address": "3513 S CHRISTOPHER COLUMBUS BLVD", "year": 2013.0, "permitdescription": "ALTERATION PERMIT" }, "geometry": { "type": "Point", "coordinates": [ -75.139328703564473, 39.905064663260269 ] } },
{ "type": "Feature", "properties": { "address": "3513 S CHRISTOPHER COLUMBUS BLVD", "year": 2013.0, "permitdescription": "ALTERATION PERMIT" }, "geometry": { "type": "Point", "coordinates": [ -75.139328703564473, 39.905064663260269 ] } },
{ "type": "Feature", "properties": { "address": "2526 BERBRO ST", "year": 2010.0, "permitdescription": "ALTERATION PERMIT" }, "geometry": { "type": "Point", "coordinates": [ -75.24233057635692, 39.91221183605419 ] } },
{ "type": "Feature", "properties": { "address": "7524-28 CHELWYNDE AVE", "year": 2014.0, "permitdescription": "ALTERATION PERMIT" }, "geometry": { "type": "Point", "coordinates": [ -75.243608677414144, 39.908598598206666 ] } },
{ "type": "Feature", "properties": { "address": "2516 BELLFORD ST", "year": 2011.0, "permitdescription": "ALTERATION PERMIT" }, "geometry": { "type": "Point", "coordinates": [ -75.245014776413527, 39.911072514682864 ] } },
{ "type": "Feature", "properties": { "address": "7432 BUIST AVE", "year": 2015.0, "permitdescription": "ALTERATION PERMIT" }, "geometry": { "type": "Point", "coordinates": [ -75.243528027822862, 39.910071657660566 ] } },
{ "type": "Feature", "properties": { "address": "7426 BUIST AVE", "year": 2015.0, "permitdescription": "ALTERATION PERMIT" }, "geometry": { "type": "Point", "coordinates": [ -75.243430194483452, 39.910180599182688 ] } },
{ "type": "Feature", "properties": { "address": "2426 S 75TH ST", "year": 2014.0, "permitdescription": "ALTERATION PERMIT" }, "geometry": { "type": "Point", "coordinates": [ -75.246890399474495, 39.911535945023914 ] } },
{ "type": "Feature", "properties": { "address": "7528 WHEELER ST", "year": 2011.0, "permitdescription": "ALTERATION PERMIT" }, "geometry": { "type": "Point", "coordinates": [ -75.247765632240444, 39.911156763599266 ] } },
{ "type": "Feature", "properties": { "address": "2509 ROSELLA PL", "year": 2015.0, "permitdescription": "ALTERATION PERMIT" }, "geometry": { "type": "Point", "coordinates": [ -75.247581539226033, 39.909425665147033 ] } },
{ "type": "Feature", "properties": { "address": "7426 BUIST AVE", "year": 2015.0, "permitdescription": "ALTERATION PERMIT" }, "geometry": { "type": "Point", "coordinates": [ -75.243430194483452, 39.910180599182688 ] } },
{ "type": "Feature", "properties": { "address": "7525-29 CHELWYNDE AVE", "year": 2011.0, "permitdescription": "ALTERATION PERMIT" }, "geometry": { "type": "Point", "coordinates": [ -75.244075789207528, 39.908852914234899 ] } },
{ "type": "Feature", "properties": { "address": "7240 DICKS AVE", "year": 2013.0, "permitdescription": "ALTERATION PERMIT" }, "geometry": { "type": "Point", "coordinates": [ -75.238343833088905, 39.911960485835344 ] } },
{ "type": "Feature", "properties": { "address": "2648 S 73RD ST", "year": 2010.0, "permitdescription": "ALTERATION PERMIT" }, "geometry": { "type": "Point", "coordinates": [ -75.239492512684592, 39.911985374253916 ] } },
{ "type": "Feature", "properties": { "address": "2635 ISLAND AVE", "year": 2012.0, "permitdescription": "ALTERATION PERMIT" }, "geometry": { "type": "Point", "coordinates": [ -75.241969373016815, 39.911106070526415 ] } },
{ "type": "Feature", "properties": { "address": "7362 CHELWYNDE AVE", "year": 2015.0, "permitdescription": "ALTERATION PERMIT" }, "geometry": { "type": "Point", "coordinates": [ -75.240810313057921, 39.911067457508921 ] } },
{ "type": "Feature", "properties": { "address": "7320 LONGSPUR PL", "year": 2013.0, "permitdescription": "ALTERATION PERMIT" }, "geometry": { "type": "Point", "coordinates": [ -75.237146589147514, 39.908938801346075 ] } },
{ "type": "Feature", "properties": { "address": "7327 DICKS AVE", "year": 2014.0, "permitdescription": "ALTERATION PERMIT" }, "geometry": { "type": "Point", "coordinates": [ -75.239925574883969, 39.911423488406214 ] } },
{ "type": "Feature", "properties": { "address": "7400 DICKS AVE", "year": 2011.0, "permitdescription": "ALTERATION PERMIT" }, "geometry": { "type": "Point", "coordinates": [ -75.240175788660068, 39.91063568128061 ] } },
{ "type": "Feature", "properties": { "address": "7408 LAPWING PL", "year": 2011.0, "permitdescription": "ALTERATION PERMIT" }, "geometry": { "type": "Point", "coordinates": [ -75.238080712442368, 39.908285620782706 ] } },
{ "type": "Feature", "properties": { "address": "2741 ISLAND AVE", "year": 2011.0, "permitdescription": "ALTERATION PERMIT" }, "geometry": { "type": "Point", "coordinates": [ -75.241231258853503, 39.908842117951316 ] } },
{ "type": "Feature", "properties": { "address": "7348 BUIST AVE", "year": 2010.0, "permitdescription": "ALTERATION PERMIT" }, "geometry": { "type": "Point", "coordinates": [ -75.241400421324869, 39.912008105292038 ] } },
{ "type": "Feature", "properties": { "address": "7224 GUYER AVE", "year": 2015.0, "permitdescription": "ALTERATION PERMIT" }, "geometry": { "type": "Point", "coordinates": [ -75.237691258952324, 39.911747616538456 ] } },
{ "type": "Feature", "properties": { "address": "2725 PLOVER ST", "year": 2012.0, "permitdescription": "ALTERATION PERMIT" }, "geometry": { "type": "Point", "coordinates": [ -75.240626104797911, 39.909679549050516 ] } },
{ "type": "Feature", "properties": { "address": "7400 LAPWING PL", "year": 2011.0, "permitdescription": "ALTERATION PERMIT" }, "geometry": { "type": "Point", "coordinates": [ -75.237856206056819, 39.908443154602558 ] } },
{ "type": "Feature", "properties": { "address": "7225 SHEARWATER PL", "year": 2011.0, "permitdescription": "ALTERATION PERMIT" }, "geometry": { "type": "Point", "coordinates": [ -75.235581766825518, 39.909696819471307 ] } },
{ "type": "Feature", "properties": { "address": "7017 LARK PL", "year": 2015.0, "permitdescription": "ALTERATION PERMIT" }, "geometry": { "type": "Point", "coordinates": [ -75.231998317083196, 39.911424079814623 ] } },
{ "type": "Feature", "properties": { "address": "3014 S 70TH ST", "year": 2015.0, "permitdescription": "ALTERATION PERMIT" }, "geometry": { "type": "Point", "coordinates": [ -75.231492234909794, 39.911670467094822 ] } },
{ "type": "Feature", "properties": { "address": "7200 BRANT PL", "year": 2015.0, "permitdescription": "ALTERATION PERMIT" }, "geometry": { "type": "Point", "coordinates": [ -75.234655254647166, 39.911530832552216 ] } },
{ "type": "Feature", "properties": { "address": "6901-51 NORWITCH DR", "year": 2012.0, "permitdescription": "ALTERATION PERMIT" }, "geometry": { "type": "Point", "coordinates": [ -75.227557984936894, 39.909316911225844 ] } },
{ "type": "Feature", "properties": { "address": "6901-51 NORWITCH DR", "year": 2010.0, "permitdescription": "ALTERATION PERMIT" }, "geometry": { "type": "Point", "coordinates": [ -75.227557984936894, 39.909316911225844 ] } },
{ "type": "Feature", "properties": { "address": "6927 LINDBERGH BLVD", "year": 2011.0, "permitdescription": "ALTERATION PERMIT" }, "geometry": { "type": "Point", "coordinates": [ -75.229712303461241, 39.912179422733018 ] } },
{ "type": "Feature", "properties": { "address": "3521 RESERVE DR", "year": 2014.0, "permitdescription": "ALTERATION PERMIT" }, "geometry": { "type": "Point", "coordinates": [ -75.187513036906466, 39.907415337927695 ] } },
{ "type": "Feature", "properties": { "address": "1924 GEARY ST", "year": 2015.0, "permitdescription": "ALTERATION PERMIT" }, "geometry": { "type": "Point", "coordinates": [ -75.180700369227921, 39.910051231292286 ] } },
{ "type": "Feature", "properties": { "address": "3173 HALSEY PL", "year": 2009.0, "permitdescription": "ALTERATION PERMIT" }, "geometry": { "type": "Point", "coordinates": [ -75.180011425620251, 39.910373454081117 ] } },
{ "type": "Feature", "properties": { "address": "1818 HULSEMAN ST", "year": 2011.0, "permitdescription": "ALTERATION PERMIT" }, "geometry": { "type": "Point", "coordinates": [ -75.179119857542943, 39.909252732923036 ] } },
{ "type": "Feature", "properties": { "address": "3183 S SYDENHAM ST", "year": 2011.0, "permitdescription": "ALTERATION PERMIT" }, "geometry": { "type": "Point", "coordinates": [ -75.174737672673743, 39.909786819867925 ] } },
{ "type": "Feature", "properties": { "address": "3149 S SYDENHAM ST", "year": 2009.0, "permitdescription": "ALTERATION PERMIT" }, "geometry": { "type": "Point", "coordinates": [ -75.174570722154684, 39.910531883400651 ] } },
{ "type": "Feature", "properties": { "address": "3183 S 17TH ST", "year": 2010.0, "permitdescription": "ALTERATION PERMIT" }, "geometry": { "type": "Point", "coordinates": [ -75.176865538539062, 39.910022318029121 ] } },
{ "type": "Feature", "properties": { "address": "3215 S 18TH ST", "year": 2009.0, "permitdescription": "ALTERATION PERMIT" }, "geometry": { "type": "Point", "coordinates": [ -75.178078463665017, 39.909485791023073 ] } },
{ "type": "Feature", "properties": { "address": "1813 HULSEMAN ST", "year": 2008.0, "permitdescription": "ALTERATION PERMIT" }, "geometry": { "type": "Point", "coordinates": [ -75.17881797413186, 39.909635479384832 ] } },
{ "type": "Feature", "properties": { "address": "3149 S SYDENHAM ST", "year": 2011.0, "permitdescription": "ALTERATION PERMIT" }, "geometry": { "type": "Point", "coordinates": [ -75.174570722154684, 39.910531883400651 ] } },
{ "type": "Feature", "properties": { "address": "3244 S SYDENHAM ST", "year": 2009.0, "permitdescription": "ALTERATION PERMIT" }, "geometry": { "type": "Point", "coordinates": [ -75.175462451107222, 39.908426311067657 ] } },
{ "type": "Feature", "properties": { "address": "1806 FORRESTAL ST", "year": 2014.0, "permitdescription": "ALTERATION PERMIT" }, "geometry": { "type": "Point", "coordinates": [ -75.178438350916508, 39.91050136691468 ] } },
{ "type": "Feature", "properties": { "address": "1802 HULSEMAN ST", "year": 2011.0, "permitdescription": "ALTERATION PERMIT" }, "geometry": { "type": "Point", "coordinates": [ -75.178614297007371, 39.909189757616922 ] } },
{ "type": "Feature", "properties": { "address": "1532 CURTIN ST", "year": 2012.0, "permitdescription": "ALTERATION PERMIT" }, "geometry": { "type": "Point", "coordinates": [ -75.17551730968691, 39.910690507999895 ] } },
{ "type": "Feature", "properties": { "address": "3223 CHAUCER ST", "year": 2012.0, "permitdescription": "ALTERATION PERMIT" }, "geometry": { "type": "Point", "coordinates": [ -75.175605134796683, 39.909080759712694 ] } },
{ "type": "Feature", "properties": { "address": "3159 S SMEDLEY ST", "year": 2010.0, "permitdescription": "ALTERATION PERMIT" }, "geometry": { "type": "Point", "coordinates": [ -75.175998999812336, 39.910670774970917 ] } },
{ "type": "Feature", "properties": { "address": "3211 S JUNIPER ST", "year": 2015.0, "permitdescription": "ALTERATION PERMIT" }, "geometry": { "type": "Point", "coordinates": [ -75.171234041962009, 39.909932507351634 ] } },
{ "type": "Feature", "properties": { "address": "3237 S BROAD ST", "year": 2013.0, "permitdescription": "ALTERATION PERMIT" }, "geometry": { "type": "Point", "coordinates": [ -75.172232903350476, 39.909276359226453 ] } },
{ "type": "Feature", "properties": { "address": "3131 S JUNIPER ST", "year": 2010.0, "permitdescription": "ALTERATION PERMIT" }, "geometry": { "type": "Point", "coordinates": [ -75.17108186004053, 39.910617948827316 ] } },
{ "type": "Feature", "properties": { "address": "3228 S JUNIPER ST", "year": 2011.0, "permitdescription": "ALTERATION PERMIT" }, "geometry": { "type": "Point", "coordinates": [ -75.17180104927634, 39.909603848624407 ] } },
{ "type": "Feature", "properties": { "address": "700 PACKER AVE", "year": 2008.0, "permitdescription": "ALTERATION PERMIT" }, "geometry": { "type": "Point", "coordinates": [ -75.162598048896342, 39.908323393568018 ] } },
{ "type": "Feature", "properties": { "address": "900 PACKER AVE", "year": 2012.0, "permitdescription": "ALTERATION PERMIT" }, "geometry": { "type": "Point", "coordinates": [ -75.164746120088168, 39.909320794386772 ] } },
{ "type": "Feature", "properties": { "address": "600 PACKER AVE", "year": 2013.0, "permitdescription": "ALTERATION PERMIT" }, "geometry": { "type": "Point", "coordinates": [ -75.160209974697054, 39.906593154568291 ] } },
{ "type": "Feature", "properties": { "address": "2230 ISLAND AVE", "year": 2008.0, "permitdescription": "ALTERATION PERMIT" }, "geometry": { "type": "Point", "coordinates": [ -75.247054072377836, 39.91534445972858 ] } },
{ "type": "Feature", "properties": { "address": "2415 S 73RD ST", "year": 2015.0, "permitdescription": "ALTERATION PERMIT" }, "geometry": { "type": "Point", "coordinates": [ -75.242323495328264, 39.915146810704925 ] } },
{ "type": "Feature", "properties": { "address": "7219 GRAYS AVE", "year": 2015.0, "permitdescription": "ALTERATION PERMIT" }, "geometry": { "type": "Point", "coordinates": [ -75.242472139358483, 39.916181091153824 ] } },
{ "type": "Feature", "properties": { "address": "2440 MILAN ST", "year": 2011.0, "permitdescription": "ALTERATION PERMIT" }, "geometry": { "type": "Point", "coordinates": [ -75.244676202461449, 39.912797177921469 ] } },
{ "type": "Feature", "properties": { "address": "2622 S 72ND ST", "year": 2013.0, "permitdescription": "ALTERATION PERMIT" }, "geometry": { "type": "Point", "coordinates": [ -75.238954427279836, 39.913145553445993 ] } },
{ "type": "Feature", "properties": { "address": "2515-17 S 72ND ST", "year": 2010.0, "permitdescription": "ALTERATION PERMIT" }, "geometry": { "type": "Point", "coordinates": [ -75.239755630774695, 39.914920193680501 ] } },
{ "type": "Feature", "properties": { "address": "2608 S 73RD ST", "year": 2013.0, "permitdescription": "ALTERATION PERMIT" }, "geometry": { "type": "Point", "coordinates": [ -75.240279225228491, 39.912638144369701 ] } },
{ "type": "Feature", "properties": { "address": "7200-04 ELMWOOD AVE", "year": 2008.0, "permitdescription": "ALTERATION PERMIT" }, "geometry": { "type": "Point", "coordinates": [ -75.240337728951332, 39.914878638750487 ] } },
{ "type": "Feature", "properties": { "address": "7147 BUIST AVE", "year": 2011.0, "permitdescription": "ALTERATION PERMIT" }, "geometry": { "type": "Point", "coordinates": [ -75.238871853071515, 39.914327874999564 ] } },
{ "type": "Feature", "properties": { "address": "2635 LLOYD ST", "year": 2014.0, "permitdescription": "ALTERATION PERMIT" }, "geometry": { "type": "Point", "coordinates": [ -75.238910165765148, 39.912820274528841 ] } },
{ "type": "Feature", "properties": { "address": "2527 S 73RD ST", "year": 2012.0, "permitdescription": "ALTERATION PERMIT" }, "geometry": { "type": "Point", "coordinates": [ -75.240908842928008, 39.91377545802942 ] } },
{ "type": "Feature", "properties": { "address": "6813 LINDBERGH BLVD", "year": 2008.0, "permitdescription": "ALTERATION PERMIT" }, "geometry": { "type": "Point", "coordinates": [ -75.228097698771677, 39.913323354409499 ] } },
{ "type": "Feature", "properties": { "address": "3012 S 68TH ST", "year": 2015.0, "permitdescription": "ALTERATION PERMIT" }, "geometry": { "type": "Point", "coordinates": [ -75.228340559951903, 39.914014473074403 ] } },
{ "type": "Feature", "properties": { "address": "6832 FINCH PL", "year": 2014.0, "permitdescription": "ALTERATION PERMIT" }, "geometry": { "type": "Point", "coordinates": [ -75.229347556478558, 39.913636691838931 ] } },
{ "type": "Feature", "properties": { "address": "6813 LINDBERGH BLVD", "year": 2011.0, "permitdescription": "ALTERATION PERMIT" }, "geometry": { "type": "Point", "coordinates": [ -75.228097698771677, 39.913323354409499 ] } },
{ "type": "Feature", "properties": { "address": "6600 ESSINGTON AVE", "year": 2010.0, "permitdescription": "ALTERATION PERMIT" }, "geometry": { "type": "Point", "coordinates": [ -75.220590505691277, 39.91442217466259 ] } },
{ "type": "Feature", "properties": { "address": "6600 ESSINGTON AVE", "year": 2010.0, "permitdescription": "ALTERATION PERMIT" }, "geometry": { "type": "Point", "coordinates": [ -75.220590505691277, 39.91442217466259 ] } },
{ "type": "Feature", "properties": { "address": "3144 W PASSYUNK AVE", "year": 2015.0, "permitdescription": "ALTERATION PERMIT" }, "geometry": { "type": "Point", "coordinates": [ -75.198334771805989, 39.91238198306781 ] } },
{ "type": "Feature", "properties": { "address": "3144 W PASSYUNK AVE", "year": 2010.0, "permitdescription": "ALTERATION PERMIT" }, "geometry": { "type": "Point", "coordinates": [ -75.198334771805989, 39.91238198306781 ] } },
{ "type": "Feature", "properties": { "address": "3144 W PASSYUNK AVE", "year": 2008.0, "permitdescription": "ALTERATION PERMIT" }, "geometry": { "type": "Point", "coordinates": [ -75.198334771805989, 39.91238198306781 ] } },
{ "type": "Feature", "properties": { "address": "1911 OLYMPIA PL", "year": 2009.0, "permitdescription": "ALTERATION PERMIT" }, "geometry": { "type": "Point", "coordinates": [ -75.1806417574075, 39.911744297991824 ] } },
{ "type": "Feature", "properties": { "address": "3149 S 20TH ST", "year": 2010.0, "permitdescription": "ALTERATION PERMIT" }, "geometry": { "type": "Point", "coordinates": [ -75.181943791899286, 39.911628088190426 ] } },
{ "type": "Feature", "properties": { "address": "3135 S UBER ST", "year": 2013.0, "permitdescription": "ALTERATION PERMIT" }, "geometry": { "type": "Point", "coordinates": [ -75.181056752019799, 39.911957899144618 ] } },
{ "type": "Feature", "properties": { "address": "1841 SCHLEY ST", "year": 2011.0, "permitdescription": "ALTERATION PERMIT" }, "geometry": { "type": "Point", "coordinates": [ -75.179109984908962, 39.912202501612242 ] } },
{ "type": "Feature", "properties": { "address": "2033 PENROSE AVE", "year": 2008.0, "permitdescription": "ALTERATION PERMIT" }, "geometry": { "type": "Point", "coordinates": [ -75.18456530399412, 39.912342530063782 ] } },
{ "type": "Feature", "properties": { "address": "1907 FORRESTAL ST", "year": 2009.0, "permitdescription": "ALTERATION PERMIT" }, "geometry": { "type": "Point", "coordinates": [ -75.179973124735355, 39.911115543628839 ] } },
{ "type": "Feature", "properties": { "address": "3134 S UBER ST", "year": 2013.0, "permitdescription": "ALTERATION PERMIT" }, "geometry": { "type": "Point", "coordinates": [ -75.181556755495635, 39.91193520825481 ] } },
{ "type": "Feature", "properties": { "address": "2040 PENROSE AVE", "year": 2014.0, "permitdescription": "ALTERATION PERMIT" }, "geometry": { "type": "Point", "coordinates": [ -75.183398249067267, 39.911912914607953 ] } },
{ "type": "Feature", "properties": { "address": "1848 LANVALE PL", "year": 2011.0, "permitdescription": "ALTERATION PERMIT" }, "geometry": { "type": "Point", "coordinates": [ -75.179469840077601, 39.911317593263533 ] } },
{ "type": "Feature", "properties": { "address": "2033 PENROSE AVE", "year": 2010.0, "permitdescription": "ALTERATION PERMIT" }, "geometry": { "type": "Point", "coordinates": [ -75.18456530399412, 39.912342530063782 ] } },
{ "type": "Feature", "properties": { "address": "2938 S SYDENHAM ST", "year": 2009.0, "permitdescription": "ALTERATION PERMIT" }, "geometry": { "type": "Point", "coordinates": [ -75.174540129603059, 39.913726745958677 ] } },
{ "type": "Feature", "properties": { "address": "2920 S SMEDLEY ST", "year": 2009.0, "permitdescription": "ALTERATION PERMIT" }, "geometry": { "type": "Point", "coordinates": [ -75.175675518233305, 39.914226911848331 ] } },
{ "type": "Feature", "properties": { "address": "2942 S 16TH ST", "year": 2015.0, "permitdescription": "ALTERATION PERMIT" }, "geometry": { "type": "Point", "coordinates": [ -75.175220893984317, 39.913668341003714 ] } },
{ "type": "Feature", "properties": { "address": "2922 S SYDENHAM ST", "year": 2008.0, "permitdescription": "ALTERATION PERMIT" }, "geometry": { "type": "Point", "coordinates": [ -75.174471522786916, 39.914038456266219 ] } },
{ "type": "Feature", "properties": { "address": "2948 S 18TH ST", "year": 2015.0, "permitdescription": "ALTERATION PERMIT" }, "geometry": { "type": "Point", "coordinates": [ -75.177689119344862, 39.913855470422909 ] } },
{ "type": "Feature", "properties": { "address": "2930 S 18TH ST", "year": 2009.0, "permitdescription": "ALTERATION PERMIT" }, "geometry": { "type": "Point", "coordinates": [ -75.177610619107014, 39.914222612008501 ] } },
{ "type": "Feature", "properties": { "address": "2947 S 15TH ST", "year": 2014.0, "permitdescription": "ALTERATION PERMIT" }, "geometry": { "type": "Point", "coordinates": [ -75.173572281431717, 39.913377755045573 ] } },
{ "type": "Feature", "properties": { "address": "2947 S 15TH ST", "year": 2015.0, "permitdescription": "ALTERATION PERMIT" }, "geometry": { "type": "Point", "coordinates": [ -75.173572281431717, 39.913377755045573 ] } },
{ "type": "Feature", "properties": { "address": "3004 S SYDENHAM ST", "year": 2013.0, "permitdescription": "ALTERATION PERMIT" }, "geometry": { "type": "Point", "coordinates": [ -75.174687124776554, 39.913128060880574 ] } },
{ "type": "Feature", "properties": { "address": "2847 S SYDENHAM ST", "year": 2014.0, "permitdescription": "ALTERATION PERMIT" }, "geometry": { "type": "Point", "coordinates": [ -75.173970149741081, 39.915036124652474 ] } },
{ "type": "Feature", "properties": { "address": "3013 S COLORADO ST", "year": 2009.0, "permitdescription": "ALTERATION PERMIT" }, "geometry": { "type": "Point", "coordinates": [ -75.176825006913475, 39.913246975722515 ] } },
{ "type": "Feature", "properties": { "address": "2823 S SMEDLEY ST", "year": 2012.0, "permitdescription": "ALTERATION PERMIT" }, "geometry": { "type": "Point", "coordinates": [ -75.175103902047979, 39.91529540460332 ] } },
{ "type": "Feature", "properties": { "address": "2947 S 17TH ST", "year": 2013.0, "permitdescription": "ALTERATION PERMIT" }, "geometry": { "type": "Point", "coordinates": [ -75.176025088110336, 39.913682019104591 ] } },
{ "type": "Feature", "properties": { "address": "1831 SCHLEY ST", "year": 2008.0, "permitdescription": "ALTERATION PERMIT" }, "geometry": { "type": "Point", "coordinates": [ -75.178830121812524, 39.912164462190418 ] } },
{ "type": "Feature", "properties": { "address": "2933 S 17TH ST", "year": 2009.0, "permitdescription": "ALTERATION PERMIT" }, "geometry": { "type": "Point", "coordinates": [ -75.175961435330663, 39.913972143727371 ] } },
{ "type": "Feature", "properties": { "address": "3016 S SMEDLEY ST", "year": 2009.0, "permitdescription": "ALTERATION PERMIT" }, "geometry": { "type": "Point", "coordinates": [ -75.175938086772504, 39.913063914192513 ] } },
{ "type": "Feature", "properties": { "address": "3009 S SMEDLEY ST", "year": 2013.0, "permitdescription": "ALTERATION PERMIT" }, "geometry": { "type": "Point", "coordinates": [ -75.175563230920574, 39.913168404429832 ] } },
{ "type": "Feature", "properties": { "address": "2955 S SMEDLEY ST", "year": 2014.0, "permitdescription": "ALTERATION PERMIT" }, "geometry": { "type": "Point", "coordinates": [ -75.17548412838488, 39.91352771724668 ] } },
{ "type": "Feature", "properties": { "address": "3010 S COLORADO ST", "year": 2009.0, "permitdescription": "ALTERATION PERMIT" }, "geometry": { "type": "Point", "coordinates": [ -75.177143495651592, 39.913332642682526 ] } },
{ "type": "Feature", "properties": { "address": "2820 S SMEDLEY ST", "year": 2009.0, "permitdescription": "ALTERATION PERMIT" }, "geometry": { "type": "Point", "coordinates": [ -75.175425923218285, 39.915374825288517 ] } },
{ "type": "Feature", "properties": { "address": "1829 POLLOCK ST", "year": 2012.0, "permitdescription": "ALTERATION PERMIT" }, "geometry": { "type": "Point", "coordinates": [ -75.178537532366178, 39.913974822283194 ] } },
{ "type": "Feature", "properties": { "address": "3013 S COLORADO ST", "year": 2008.0, "permitdescription": "ALTERATION PERMIT" }, "geometry": { "type": "Point", "coordinates": [ -75.176825006913475, 39.913246975722515 ] } },
{ "type": "Feature", "properties": { "address": "2829 S 16TH ST", "year": 2008.0, "permitdescription": "ALTERATION PERMIT" }, "geometry": { "type": "Point", "coordinates": [ -75.174477993464251, 39.915173566051877 ] } },
{ "type": "Feature", "properties": { "address": "2937 S 16TH ST", "year": 2012.0, "permitdescription": "ALTERATION PERMIT" }, "geometry": { "type": "Point", "coordinates": [ -75.174769944922772, 39.913741292327842 ] } },
{ "type": "Feature", "properties": { "address": "1716 W MOYAMENSING AVE", "year": 2013.0, "permitdescription": "ALTERATION PERMIT" }, "geometry": { "type": "Point", "coordinates": [ -75.176506171494694, 39.914994760670737 ] } },
{ "type": "Feature", "properties": { "address": "2920 S SYDENHAM ST", "year": 2009.0, "permitdescription": "ALTERATION PERMIT" }, "geometry": { "type": "Point", "coordinates": [ -75.174462799312153, 39.914076490926057 ] } },
{ "type": "Feature", "properties": { "address": "2921 S JUNIPER ST", "year": 2008.0, "permitdescription": "ALTERATION PERMIT" }, "geometry": { "type": "Point", "coordinates": [ -75.170508242464365, 39.913515800733521 ] } },
{ "type": "Feature", "properties": { "address": "2840 S ISEMINGER ST", "year": 2009.0, "permitdescription": "ALTERATION PERMIT" }, "geometry": { "type": "Point", "coordinates": [ -75.169342673939823, 39.914074471588073 ] } },
{ "type": "Feature", "properties": { "address": "2834 S CAMAC ST", "year": 2015.0, "permitdescription": "ALTERATION PERMIT" }, "geometry": { "type": "Point", "coordinates": [ -75.168726980976999, 39.91422834710378 ] } },
{ "type": "Feature", "properties": { "address": "1300 BIGLER ST", "year": 2010.0, "permitdescription": "ALTERATION PERMIT" }, "geometry": { "type": "Point", "coordinates": [ -75.169969738804795, 39.913785134866231 ] } },
{ "type": "Feature", "properties": { "address": "1308 BIGLER ST", "year": 2008.0, "permitdescription": "ALTERATION PERMIT" }, "geometry": { "type": "Point", "coordinates": [ -75.170192181597741, 39.913813694871912 ] } },
{ "type": "Feature", "properties": { "address": "2848 S CAMAC ST", "year": 2013.0, "permitdescription": "ALTERATION PERMIT" }, "geometry": { "type": "Point", "coordinates": [ -75.168788453597884, 39.913952506909389 ] } },
{ "type": "Feature", "properties": { "address": "2923 S 13TH ST", "year": 2013.0, "permitdescription": "ALTERATION PERMIT" }, "geometry": { "type": "Point", "coordinates": [ -75.1696600830184, 39.913366927488788 ] } },
{ "type": "Feature", "properties": { "address": "2836 S ISEMINGER ST", "year": 2013.0, "permitdescription": "ALTERATION PERMIT" }, "geometry": { "type": "Point", "coordinates": [ -75.169321913433549, 39.91416712170497 ] } },
{ "type": "Feature", "properties": { "address": "1006 JOHNSTON ST", "year": 2011.0, "permitdescription": "ALTERATION PERMIT" }, "geometry": { "type": "Point", "coordinates": [ -75.165212828515507, 39.914508219631401 ] } },
{ "type": "Feature", "properties": { "address": "2842 S ALDER ST", "year": 2010.0, "permitdescription": "ALTERATION PERMIT" }, "geometry": { "type": "Point", "coordinates": [ -75.165851406562354, 39.913720484760809 ] } },
{ "type": "Feature", "properties": { "address": "2901 S 10TH ST", "year": 2014.0, "permitdescription": "ALTERATION PERMIT" }, "geometry": { "type": "Point", "coordinates": [ -75.164027231622484, 39.912516267708554 ] } },
{ "type": "Feature", "properties": { "address": "2721 S DARIEN ST", "year": 2010.0, "permitdescription": "ALTERATION PERMIT" }, "geometry": { "type": "Point", "coordinates": [ -75.162058232951324, 39.914974355138128 ] } },
{ "type": "Feature", "properties": { "address": "1011 JOHNSTON ST", "year": 2009.0, "permitdescription": "ALTERATION PERMIT" }, "geometry": { "type": "Point", "coordinates": [ -75.165864441386262, 39.914934795535785 ] } },
{ "type": "Feature", "properties": { "address": "2845 S MARVINE ST", "year": 2009.0, "permitdescription": "ALTERATION PERMIT" }, "geometry": { "type": "Point", "coordinates": [ -75.167177751632536, 39.913845050523101 ] } },
{ "type": "Feature", "properties": { "address": "2811 S MARVINE ST", "year": 2014.0, "permitdescription": "ALTERATION PERMIT" }, "geometry": { "type": "Point", "coordinates": [ -75.167039423037096, 39.914501735144725 ] } },
{ "type": "Feature", "properties": { "address": "834 JOHNSTON ST", "year": 2008.0, "permitdescription": "ALTERATION PERMIT" }, "geometry": { "type": "Point", "coordinates": [ -75.162973594085301, 39.914202400598079 ] } },
{ "type": "Feature", "properties": { "address": "2817 S 11TH ST", "year": 2011.0, "permitdescription": "ALTERATION PERMIT" }, "geometry": { "type": "Point", "coordinates": [ -75.166508281773829, 39.914314905297196 ] } },
{ "type": "Feature", "properties": { "address": "2821 S 10TH ST", "year": 2013.0, "permitdescription": "ALTERATION PERMIT" }, "geometry": { "type": "Point", "coordinates": [ -75.164701349629098, 39.913935101583647 ] } },
{ "type": "Feature", "properties": { "address": "2835 S WARNOCK ST", "year": 2009.0, "permitdescription": "ALTERATION PERMIT" }, "geometry": { "type": "Point", "coordinates": [ -75.16602794805975, 39.913904344983528 ] } },
{ "type": "Feature", "properties": { "address": "2715 S DARIEN ST", "year": 2011.0, "permitdescription": "ALTERATION PERMIT" }, "geometry": { "type": "Point", "coordinates": [ -75.162028374142807, 39.915098315682272 ] } },
{ "type": "Feature", "properties": { "address": "2833 S 10TH ST", "year": 2010.0, "permitdescription": "ALTERATION PERMIT" }, "geometry": { "type": "Point", "coordinates": [ -75.164768504745084, 39.913642208793426 ] } },
{ "type": "Feature", "properties": { "address": "2811 S 11TH ST", "year": 2012.0, "permitdescription": "ALTERATION PERMIT" }, "geometry": { "type": "Point", "coordinates": [ -75.166482822726465, 39.914430767143514 ] } },
{ "type": "Feature", "properties": { "address": "2847 S 11TH ST", "year": 2013.0, "permitdescription": "ALTERATION PERMIT" }, "geometry": { "type": "Point", "coordinates": [ -75.166632520532971, 39.913739787475976 ] } },
{ "type": "Feature", "properties": { "address": "2725 S RANDOLPH ST", "year": 2015.0, "permitdescription": "ALTERATION PERMIT" }, "geometry": { "type": "Point", "coordinates": [ -75.157394681380708, 39.914310163282174 ] } },
{ "type": "Feature", "properties": { "address": "2746 S RANDOLPH ST", "year": 2013.0, "permitdescription": "ALTERATION PERMIT" }, "geometry": { "type": "Point", "coordinates": [ -75.157950720144171, 39.913896498771926 ] } },
{ "type": "Feature", "properties": { "address": "2709 S MARSHALL ST", "year": 2009.0, "permitdescription": "ALTERATION PERMIT" }, "geometry": { "type": "Point", "coordinates": [ -75.158553653915391, 39.914796806520748 ] } },
{ "type": "Feature", "properties": { "address": "2707 S MARSHALL ST", "year": 2011.0, "permitdescription": "ALTERATION PERMIT" }, "geometry": { "type": "Point", "coordinates": [ -75.158544331485913, 39.91483983782534 ] } },
{ "type": "Feature", "properties": { "address": "2825 S FAIRHILL ST", "year": 2015.0, "permitdescription": "ALTERATION PERMIT" }, "geometry": { "type": "Point", "coordinates": [ -75.158318204072543, 39.913216222769478 ] } },
{ "type": "Feature", "properties": { "address": "2715 S RANDOLPH ST", "year": 2011.0, "permitdescription": "ALTERATION PERMIT" }, "geometry": { "type": "Point", "coordinates": [ -75.157349951027186, 39.914521895840558 ] } },
{ "type": "Feature", "properties": { "address": "2819 S RANDOLPH ST", "year": 2015.0, "permitdescription": "ALTERATION PERMIT" }, "geometry": { "type": "Point", "coordinates": [ -75.157640278250994, 39.913263704048859 ] } },
{ "type": "Feature", "properties": { "address": "720 MOLLBORE TER", "year": 2014.0, "permitdescription": "ALTERATION PERMIT" }, "geometry": { "type": "Point", "coordinates": [ -75.161390147902623, 39.914526332800229 ] } },
{ "type": "Feature", "properties": { "address": "2708 S MARSHALL ST", "year": 2014.0, "permitdescription": "ALTERATION PERMIT" }, "geometry": { "type": "Point", "coordinates": [ -75.158890703581093, 39.91484624264983 ] } },
{ "type": "Feature", "properties": { "address": "2707 S MARSHALL ST", "year": 2012.0, "permitdescription": "ALTERATION PERMIT" }, "geometry": { "type": "Point", "coordinates": [ -75.158544331485913, 39.91483983782534 ] } },
{ "type": "Feature", "properties": { "address": "2706 S MARSHALL ST", "year": 2011.0, "permitdescription": "ALTERATION PERMIT" }, "geometry": { "type": "Point", "coordinates": [ -75.158881797639964, 39.914888832171151 ] } },
{ "type": "Feature", "properties": { "address": "2843 S 7TH ST", "year": 2012.0, "permitdescription": "ALTERATION PERMIT" }, "geometry": { "type": "Point", "coordinates": [ -75.160142956763011, 39.912909695085986 ] } },
{ "type": "Feature", "properties": { "address": "2843 S 7TH ST", "year": 2011.0, "permitdescription": "ALTERATION PERMIT" }, "geometry": { "type": "Point", "coordinates": [ -75.160142956763011, 39.912909695085986 ] } },
{ "type": "Feature", "properties": { "address": "330 OREGON AVE", "year": 2011.0, "permitdescription": "ALTERATION PERMIT" }, "geometry": { "type": "Point", "coordinates": [ -75.155576570213512, 39.913143127141517 ] } },
{ "type": "Feature", "properties": { "address": "330 OREGON AVE", "year": 2008.0, "permitdescription": "ALTERATION PERMIT" }, "geometry": { "type": "Point", "coordinates": [ -75.155576570213512, 39.913143127141517 ] } },
{ "type": "Feature", "properties": { "address": "330 OREGON AVE", "year": 2012.0, "permitdescription": "ALTERATION PERMIT" }, "geometry": { "type": "Point", "coordinates": [ -75.155576570213512, 39.913143127141517 ] } },
{ "type": "Feature", "properties": { "address": "140 OREGON AVE", "year": 2013.0, "permitdescription": "ALTERATION PERMIT" }, "geometry": { "type": "Point", "coordinates": [ -75.151223294519326, 39.913741149675857 ] } },
{ "type": "Feature", "properties": { "address": "330 OREGON AVE", "year": 2014.0, "permitdescription": "ALTERATION PERMIT" }, "geometry": { "type": "Point", "coordinates": [ -75.155576570213512, 39.913143127141517 ] } },
{ "type": "Feature", "properties": { "address": "2750 S 3RD ST", "year": 2008.0, "permitdescription": "ALTERATION PERMIT" }, "geometry": { "type": "Point", "coordinates": [ -75.153179091127726, 39.912357518056382 ] } },
{ "type": "Feature", "properties": { "address": "330 OREGON AVE", "year": 2013.0, "permitdescription": "ALTERATION PERMIT" }, "geometry": { "type": "Point", "coordinates": [ -75.155576570213512, 39.913143127141517 ] } },
{ "type": "Feature", "properties": { "address": "2715 S FRONT ST", "year": 2012.0, "permitdescription": "ALTERATION PERMIT" }, "geometry": { "type": "Point", "coordinates": [ -75.149513116371693, 39.912959980378915 ] } },
{ "type": "Feature", "properties": { "address": "59 OREGON AVE", "year": 2008.0, "permitdescription": "ALTERATION PERMIT" }, "geometry": { "type": "Point", "coordinates": [ -75.14919559320748, 39.914317412302772 ] } },
{ "type": "Feature", "properties": { "address": "2743 S FRONT ST", "year": 2012.0, "permitdescription": "ALTERATION PERMIT" }, "geometry": { "type": "Point", "coordinates": [ -75.149821474144787, 39.912460842187826 ] } },
{ "type": "Feature", "properties": { "address": "2715 S FRONT ST", "year": 2011.0, "permitdescription": "ALTERATION PERMIT" }, "geometry": { "type": "Point", "coordinates": [ -75.149513116371693, 39.912959980378915 ] } },
{ "type": "Feature", "properties": { "address": "2715 S FRONT ST", "year": 2015.0, "permitdescription": "ALTERATION PERMIT" }, "geometry": { "type": "Point", "coordinates": [ -75.149513116371693, 39.912959980378915 ] } },
{ "type": "Feature", "properties": { "address": "2715 S FRONT ST", "year": 2012.0, "permitdescription": "ALTERATION PERMIT" }, "geometry": { "type": "Point", "coordinates": [ -75.149513116371693, 39.912959980378915 ] } },
{ "type": "Feature", "properties": { "address": "2610 S CHRISTOPHER COLUMBUS BLVD", "year": 2012.0, "permitdescription": "ALTERATION PERMIT" }, "geometry": { "type": "Point", "coordinates": [ -75.139674318076985, 39.914190426487885 ] } },
{ "type": "Feature", "properties": { "address": "2610 S CHRISTOPHER COLUMBUS BLVD", "year": 2011.0, "permitdescription": "ALTERATION PERMIT" }, "geometry": { "type": "Point", "coordinates": [ -75.139674318076985, 39.914190426487885 ] } },
{ "type": "Feature", "properties": { "address": "2610 S CHRISTOPHER COLUMBUS BLVD", "year": 2010.0, "permitdescription": "ALTERATION PERMIT" }, "geometry": { "type": "Point", "coordinates": [ -75.139674318076985, 39.914190426487885 ] } },
{ "type": "Feature", "properties": { "address": "2501 S CHRISTOPHER COLUMBUS BLVD", "year": 2013.0, "permitdescription": "ALTERATION PERMIT" }, "geometry": { "type": "Point", "coordinates": [ -75.135329118193667, 39.914139715312814 ] } },
{ "type": "Feature", "properties": { "address": "7127 UPLAND ST", "year": 2009.0, "permitdescription": "ALTERATION PERMIT" }, "geometry": { "type": "Point", "coordinates": [ -75.245918252572281, 39.921009336928293 ] } },
{ "type": "Feature", "properties": { "address": "7283 SAYBROOK AVE", "year": 2015.0, "permitdescription": "ALTERATION PERMIT" }, "geometry": { "type": "Point", "coordinates": [ -75.245293382387729, 39.917142418123291 ] } },
{ "type": "Feature", "properties": { "address": "6929 PASCHALL AVE", "year": 2012.0, "permitdescription": "ALTERATION PERMIT" }, "geometry": { "type": "Point", "coordinates": [ -75.239908620227737, 39.920131515628782 ] } },
{ "type": "Feature", "properties": { "address": "7020 PASCHALL AVE", "year": 2015.0, "permitdescription": "ALTERATION PERMIT" }, "geometry": { "type": "Point", "coordinates": [ -75.240650342300896, 39.918905438215731 ] } },
{ "type": "Feature", "properties": { "address": "6900 PASCHALL AVE", "year": 2009.0, "permitdescription": "ALTERATION PERMIT" }, "geometry": { "type": "Point", "coordinates": [ -75.238765479822291, 39.920283057836585 ] } },
{ "type": "Feature", "properties": { "address": "6824 PASCHALL AVE", "year": 2010.0, "permitdescription": "ALTERATION PERMIT" }, "geometry": { "type": "Point", "coordinates": [ -75.23778981530954, 39.920837479965009 ] } },
{ "type": "Feature", "properties": { "address": "7002 PASCHALL AVE", "year": 2014.0, "permitdescription": "ALTERATION PERMIT" }, "geometry": { "type": "Point", "coordinates": [ -75.240234218924599, 39.919198378076509 ] } },
{ "type": "Feature", "properties": { "address": "2660 S 68TH ST", "year": 2010.0, "permitdescription": "ALTERATION PERMIT" }, "geometry": { "type": "Point", "coordinates": [ -75.231930425988679, 39.916945153401194 ] } },
{ "type": "Feature", "properties": { "address": "2605 S 69TH ST", "year": 2015.0, "permitdescription": "ALTERATION PERMIT" }, "geometry": { "type": "Point", "coordinates": [ -75.234244936328082, 39.916967112214252 ] } },
{ "type": "Feature", "properties": { "address": "2653 HOBSON ST", "year": 2010.0, "permitdescription": "ALTERATION PERMIT" }, "geometry": { "type": "Point", "coordinates": [ -75.231206652918161, 39.917671133815332 ] } },
{ "type": "Feature", "properties": { "address": "2661 S 68TH ST", "year": 2010.0, "permitdescription": "ALTERATION PERMIT" }, "geometry": { "type": "Point", "coordinates": [ -75.231530238651956, 39.917205287037426 ] } },
{ "type": "Feature", "properties": { "address": "2560 MASSEY ST", "year": 2013.0, "permitdescription": "ALTERATION PERMIT" }, "geometry": { "type": "Point", "coordinates": [ -75.234364525733525, 39.917390748402475 ] } },
{ "type": "Feature", "properties": { "address": "2609 S 69TH ST", "year": 2014.0, "permitdescription": "ALTERATION PERMIT" }, "geometry": { "type": "Point", "coordinates": [ -75.234168324238539, 39.916903620161186 ] } },
{ "type": "Feature", "properties": { "address": "2560 MASSEY ST", "year": 2012.0, "permitdescription": "ALTERATION PERMIT" }, "geometry": { "type": "Point", "coordinates": [ -75.234364525733525, 39.917390748402475 ] } },
{ "type": "Feature", "properties": { "address": "6947 THEODORE ST", "year": 2013.0, "permitdescription": "ALTERATION PERMIT" }, "geometry": { "type": "Point", "coordinates": [ -75.236310435697419, 39.916802902036117 ] } },
{ "type": "Feature", "properties": { "address": "6838 ELMWOOD AVE", "year": 2012.0, "permitdescription": "ALTERATION PERMIT" }, "geometry": { "type": "Point", "coordinates": [ -75.235139986243098, 39.918527401516421 ] } },
{ "type": "Feature", "properties": { "address": "2539 S 69TH ST", "year": 2012.0, "permitdescription": "ALTERATION PERMIT" }, "geometry": { "type": "Point", "coordinates": [ -75.235027256242361, 39.91762152527518 ] } },
{ "type": "Feature", "properties": { "address": "2603 CARROLL ST", "year": 2014.0, "permitdescription": "ALTERATION PERMIT" }, "geometry": { "type": "Point", "coordinates": [ -75.233257188006036, 39.917740197675194 ] } },
{ "type": "Feature", "properties": { "address": "6735 ELMWOOD AVE", "year": 2011.0, "permitdescription": "ALTERATION PERMIT" }, "geometry": { "type": "Point", "coordinates": [ -75.233981140431695, 39.919919617090926 ] } },
{ "type": "Feature", "properties": { "address": "2822 BITTERN PL", "year": 2014.0, "permitdescription": "ALTERATION PERMIT" }, "geometry": { "type": "Point", "coordinates": [ -75.225796844753759, 39.917024506870021 ] } },
{ "type": "Feature", "properties": { "address": "6431 CHELWYNDE AVE", "year": 2012.0, "permitdescription": "ALTERATION PERMIT" }, "geometry": { "type": "Point", "coordinates": [ -75.227674559533369, 39.920710922924378 ] } },
{ "type": "Feature", "properties": { "address": "2621 SHIELDS ST", "year": 2013.0, "permitdescription": "ALTERATION PERMIT" }, "geometry": { "type": "Point", "coordinates": [ -75.230164895010361, 39.919368078144302 ] } },
{ "type": "Feature", "properties": { "address": "6710 DICKS AVE", "year": 2009.0, "permitdescription": "ALTERATION PERMIT" }, "geometry": { "type": "Point", "coordinates": [ -75.23026735314356, 39.917646431049398 ] } },
{ "type": "Feature", "properties": { "address": "6615 GUYER AVE", "year": 2014.0, "permitdescription": "ALTERATION PERMIT" }, "geometry": { "type": "Point", "coordinates": [ -75.228855889312413, 39.918355911559296 ] } },
{ "type": "Feature", "properties": { "address": "6729 DOREL ST", "year": 2009.0, "permitdescription": "ALTERATION PERMIT" }, "geometry": { "type": "Point", "coordinates": [ -75.230039736429291, 39.916884453652962 ] } },
{ "type": "Feature", "properties": { "address": "2825 S SIMPSON ST", "year": 2015.0, "permitdescription": "ALTERATION PERMIT" }, "geometry": { "type": "Point", "coordinates": [ -75.224532962154058, 39.918972402924055 ] } },
{ "type": "Feature", "properties": { "address": "6213 W PASSYUNK AVE", "year": 2013.0, "permitdescription": "ALTERATION PERMIT" }, "geometry": { "type": "Point", "coordinates": [ -75.214073653811724, 39.91874964274988 ] } },
{ "type": "Feature", "properties": { "address": "6046 W PASSYUNK AVE", "year": 2013.0, "permitdescription": "ALTERATION PERMIT" }, "geometry": { "type": "Point", "coordinates": [ -75.20841513281249, 39.917420334832485 ] } },
{ "type": "Feature", "properties": { "address": "2300R OREGON AVE", "year": 2008.0, "permitdescription": "ALTERATION PERMIT" }, "geometry": { "type": "Point", "coordinates": [ -75.188317348933253, 39.915711623932658 ] } },
{ "type": "Feature", "properties": { "address": "2201-25 OREGON AVE", "year": 2009.0, "permitdescription": "ALTERATION PERMIT" }, "geometry": { "type": "Point", "coordinates": [ -75.184799347218402, 39.919279314277574 ] } },
{ "type": "Feature", "properties": { "address": "2201-25 OREGON AVE", "year": 2009.0, "permitdescription": "ALTERATION PERMIT" }, "geometry": { "type": "Point", "coordinates": [ -75.184799347218402, 39.919279314277574 ] } },
{ "type": "Feature", "properties": { "address": "2200 OREGON AVE", "year": 2013.0, "permitdescription": "ALTERATION PERMIT" }, "geometry": { "type": "Point", "coordinates": [ -75.187667420227072, 39.91771222236077 ] } },
{ "type": "Feature", "properties": { "address": "2300R OREGON AVE", "year": 2012.0, "permitdescription": "ALTERATION PERMIT" }, "geometry": { "type": "Point", "coordinates": [ -75.188317348933253, 39.915711623932658 ] } },
{ "type": "Feature", "properties": { "address": "2300R OREGON AVE", "year": 2015.0, "permitdescription": "ALTERATION PERMIT" }, "geometry": { "type": "Point", "coordinates": [ -75.188317348933253, 39.915711623932658 ] } },
{ "type": "Feature", "properties": { "address": "2024 SHUNK ST", "year": 2013.0, "permitdescription": "ALTERATION PERMIT" }, "geometry": { "type": "Point", "coordinates": [ -75.181721335995022, 39.919290240157153 ] } },
{ "type": "Feature", "properties": { "address": "1901 OREGON AVE", "year": 2010.0, "permitdescription": "ALTERATION PERMIT" }, "geometry": { "type": "Point", "coordinates": [ -75.179990326416728, 39.918408894206316 ] } },
{ "type": "Feature", "properties": { "address": "1901 OREGON AVE", "year": 2010.0, "permitdescription": "ALTERATION PERMIT" }, "geometry": { "type": "Point", "coordinates": [ -75.179990326416728, 39.918408894206316 ] } },
{ "type": "Feature", "properties": { "address": "2530 S 19TH ST", "year": 2008.0, "permitdescription": "ALTERATION PERMIT" }, "geometry": { "type": "Point", "coordinates": [ -75.179233139254436, 39.919441036748211 ] } },
{ "type": "Feature", "properties": { "address": "2534 S LAMBERT ST", "year": 2009.0, "permitdescription": "ALTERATION PERMIT" }, "geometry": { "type": "Point", "coordinates": [ -75.181741468368841, 39.919650532060899 ] } },
{ "type": "Feature", "properties": { "address": "2528 S 19TH ST", "year": 2008.0, "permitdescription": "ALTERATION PERMIT" }, "geometry": { "type": "Point", "coordinates": [ -75.179221622779806, 39.919499314900769 ] } },
{ "type": "Feature", "properties": { "address": "2533 S LAMBERT ST", "year": 2010.0, "permitdescription": "ALTERATION PERMIT" }, "geometry": { "type": "Point", "coordinates": [ -75.181195242121447, 39.919637425573775 ] } },
{ "type": "Feature", "properties": { "address": "2001-53 OREGON AVE", "year": 2013.0, "permitdescription": "ALTERATION PERMIT" }, "geometry": { "type": "Point", "coordinates": [ -75.18169288767487, 39.918607146121985 ] } },
{ "type": "Feature", "properties": { "address": "2014 SHUNK ST", "year": 2014.0, "permitdescription": "ALTERATION PERMIT" }, "geometry": { "type": "Point", "coordinates": [ -75.181296666007384, 39.919239427025026 ] } },
{ "type": "Feature", "properties": { "address": "1924 SHUNK ST", "year": 2008.0, "permitdescription": "ALTERATION PERMIT" }, "geometry": { "type": "Point", "coordinates": [ -75.180117609708574, 39.919090035716366 ] } },
{ "type": "Feature", "properties": { "address": "2724 S 20TH ST", "year": 2011.0, "permitdescription": "ALTERATION PERMIT" }, "geometry": { "type": "Point", "coordinates": [ -75.181785428125977, 39.91740342037582 ] } },
{ "type": "Feature", "properties": { "address": "2810A S 20TH ST", "year": 2008.0, "permitdescription": "ALTERATION PERMIT" }, "geometry": { "type": "Point", "coordinates": [ -75.183513452325627, 39.916512678358401 ] } },
{ "type": "Feature", "properties": { "address": "2750 S 18TH ST", "year": 2015.0, "permitdescription": "ALTERATION PERMIT" }, "geometry": { "type": "Point", "coordinates": [ -75.178224036478042, 39.916450549502763 ] } },
{ "type": "Feature", "properties": { "address": "2534 S BANCROFT ST", "year": 2010.0, "permitdescription": "ALTERATION PERMIT" }, "geometry": { "type": "Point", "coordinates": [ -75.174881834438011, 39.919087273396215 ] } },
{ "type": "Feature", "properties": { "address": "2629 S 17TH ST", "year": 2012.0, "permitdescription": "ALTERATION PERMIT" }, "geometry": { "type": "Point", "coordinates": [ -75.17581468693713, 39.918050781491139 ] } },
{ "type": "Feature", "properties": { "address": "2808 S 16TH ST", "year": 2010.0, "permitdescription": "ALTERATION PERMIT" }, "geometry": { "type": "Point", "coordinates": [ -75.174792090112604, 39.91557184211311 ] } },
{ "type": "Feature", "properties": { "address": "2545 S 17TH ST", "year": 2015.0, "permitdescription": "ALTERATION PERMIT" }, "geometry": { "type": "Point", "coordinates": [ -75.175601572965562, 39.918973166094105 ] } },
{ "type": "Feature", "properties": { "address": "2653 S BOUVIER ST", "year": 2009.0, "permitdescription": "ALTERATION PERMIT" }, "geometry": { "type": "Point", "coordinates": [ -75.176999700540591, 39.917784745791018 ] } },
{ "type": "Feature", "properties": { "address": "1530 W MOYAMENSING AVE", "year": 2009.0, "permitdescription": "ALTERATION PERMIT" }, "geometry": { "type": "Point", "coordinates": [ -75.174136315810344, 39.915899601443364 ] } },
{ "type": "Feature", "properties": { "address": "2537 S 17TH ST", "year": 2009.0, "permitdescription": "ALTERATION PERMIT" }, "geometry": { "type": "Point", "coordinates": [ -75.175564861457531, 39.919135909165334 ] } },
{ "type": "Feature", "properties": { "address": "2533 S COLORADO ST", "year": 2014.0, "permitdescription": "ALTERATION PERMIT" }, "geometry": { "type": "Point", "coordinates": [ -75.176364011168602, 39.919013214752532 ] } },
{ "type": "Feature", "properties": { "address": "2757 S 17TH ST", "year": 2010.0, "permitdescription": "ALTERATION PERMIT" }, "geometry": { "type": "Point", "coordinates": [ -75.176067725341923, 39.916029784562589 ] } },
{ "type": "Feature", "properties": { "address": "1611 W MOYAMENSING AVE", "year": 2009.0, "permitdescription": "ALTERATION PERMIT" }, "geometry": { "type": "Point", "coordinates": [ -75.175258218915729, 39.91612201976924 ] } },
{ "type": "Feature", "properties": { "address": "2828 S SYDENHAM ST", "year": 2009.0, "permitdescription": "ALTERATION PERMIT" }, "geometry": { "type": "Point", "coordinates": [ -75.174209111090164, 39.915449289757376 ] } },
{ "type": "Feature", "properties": { "address": "1709 JOHNSTON ST", "year": 2010.0, "permitdescription": "ALTERATION PERMIT" }, "geometry": { "type": "Point", "coordinates": [ -75.176757783812576, 39.916334616343946 ] } },
{ "type": "Feature", "properties": { "address": "2737 S 17TH ST", "year": 2011.0, "permitdescription": "ALTERATION PERMIT" }, "geometry": { "type": "Point", "coordinates": [ -75.176117878656115, 39.916450448297319 ] } },
{ "type": "Feature", "properties": { "address": "2528 S CHADWICK ST", "year": 2013.0, "permitdescription": "ALTERATION PERMIT" }, "geometry": { "type": "Point", "coordinates": [ -75.17533319277247, 39.91927377876786 ] } },
{ "type": "Feature", "properties": { "address": "1521 SHUNK ST", "year": 2015.0, "permitdescription": "ALTERATION PERMIT" }, "geometry": { "type": "Point", "coordinates": [ -75.173485686566707, 39.918634124458819 ] } },
{ "type": "Feature", "properties": { "address": "2529 S HICKS ST", "year": 2014.0, "permitdescription": "ALTERATION PERMIT" }, "geometry": { "type": "Point", "coordinates": [ -75.17302369073002, 39.918979027487509 ] } },
{ "type": "Feature", "properties": { "address": "2533 S 17TH ST", "year": 2014.0, "permitdescription": "ALTERATION PERMIT" }, "geometry": { "type": "Point", "coordinates": [ -75.175545370418064, 39.919217354760342 ] } },
{ "type": "Feature", "properties": { "address": "2511 S 18TH ST", "year": 2008.0, "permitdescription": "ALTERATION PERMIT" }, "geometry": { "type": "Point", "coordinates": [ -75.177017085302822, 39.919784621858234 ] } },
{ "type": "Feature", "properties": { "address": "2621 S 16TH ST", "year": 2010.0, "permitdescription": "ALTERATION PERMIT" }, "geometry": { "type": "Point", "coordinates": [ -75.17423306717788, 39.918018975150169 ] } },
{ "type": "Feature", "properties": { "address": "2744 S 18TH ST", "year": 2012.0, "permitdescription": "ALTERATION PERMIT" }, "geometry": { "type": "Point", "coordinates": [ -75.178195727567541, 39.916575033915116 ] } },
{ "type": "Feature", "properties": { "address": "2516 S CHADWICK ST", "year": 2011.0, "permitdescription": "ALTERATION PERMIT" }, "geometry": { "type": "Point", "coordinates": [ -75.175281657530718, 39.919518350883791 ] } },
{ "type": "Feature", "properties": { "address": "2804 S 16TH ST", "year": 2015.0, "permitdescription": "ALTERATION PERMIT" }, "geometry": { "type": "Point", "coordinates": [ -75.174763651460864, 39.915652425022344 ] } },
{ "type": "Feature", "properties": { "address": "2644 S 17TH ST", "year": 2012.0, "permitdescription": "ALTERATION PERMIT" }, "geometry": { "type": "Point", "coordinates": [ -75.176321593526254, 39.917781248161766 ] } },
{ "type": "Feature", "properties": { "address": "2733 S CLEVELAND ST", "year": 2012.0, "permitdescription": "ALTERATION PERMIT" }, "geometry": { "type": "Point", "coordinates": [ -75.178359619340171, 39.916853084339174 ] } },
{ "type": "Feature", "properties": { "address": "2800 S 16TH ST", "year": 2012.0, "permitdescription": "ALTERATION PERMIT" }, "geometry": { "type": "Point", "coordinates": [ -75.174745092518037, 39.915742877022005 ] } },
{ "type": "Feature", "properties": { "address": "1809-13 OREGON AVE", "year": 2014.0, "permitdescription": "ALTERATION PERMIT" }, "geometry": { "type": "Point", "coordinates": [ -75.178218444392769, 39.918087948553897 ] } },
{ "type": "Feature", "properties": { "address": "2625 S BANCROFT ST", "year": 2010.0, "permitdescription": "ALTERATION PERMIT" }, "geometry": { "type": "Point", "coordinates": [ -75.17482622736776, 39.918051385976874 ] } },
{ "type": "Feature", "properties": { "address": "2627 S MOLE ST", "year": 2013.0, "permitdescription": "ALTERATION PERMIT" }, "geometry": { "type": "Point", "coordinates": [ -75.173746320112087, 39.917869872658088 ] } },
{ "type": "Feature", "properties": { "address": "1529 SHUNK ST", "year": 2014.0, "permitdescription": "ALTERATION PERMIT" }, "geometry": { "type": "Point", "coordinates": [ -75.173807375254199, 39.918676667939025 ] } },
{ "type": "Feature", "properties": { "address": "2526 S 17TH ST", "year": 2013.0, "permitdescription": "ALTERATION PERMIT" }, "geometry": { "type": "Point", "coordinates": [ -75.175988529313827, 39.91938611660877 ] } },
{ "type": "Feature", "properties": { "address": "2653 S BOUVIER ST", "year": 2009.0, "permitdescription": "ALTERATION PERMIT" }, "geometry": { "type": "Point", "coordinates": [ -75.176999700540591, 39.917784745791018 ] } },
{ "type": "Feature", "properties": { "address": "2601 S 18TH ST", "year": 2014.0, "permitdescription": "ALTERATION PERMIT" }, "geometry": { "type": "Point", "coordinates": [ -75.177284715502623, 39.918846711918441 ] } },
{ "type": "Feature", "properties": { "address": "1517 SHUNK ST", "year": 2014.0, "permitdescription": "ALTERATION PERMIT" }, "geometry": { "type": "Point", "coordinates": [ -75.173377776572991, 39.918618920738638 ] } },
{ "type": "Feature", "properties": { "address": "2641 S 17TH ST", "year": 2012.0, "permitdescription": "ALTERATION PERMIT" }, "geometry": { "type": "Point", "coordinates": [ -75.175865102913178, 39.917806771503109 ] } },
{ "type": "Feature", "properties": { "address": "1719 W MOYAMENSING AVE", "year": 2011.0, "permitdescription": "ALTERATION PERMIT" }, "geometry": { "type": "Point", "coordinates": [ -75.176773232005829, 39.91550040634003 ] } },
{ "type": "Feature", "properties": { "address": "2712 S ISEMINGER ST", "year": 2009.0, "permitdescription": "ALTERATION PERMIT" }, "geometry": { "type": "Point", "coordinates": [ -75.168879957778088, 39.915989196202723 ] } },
{ "type": "Feature", "properties": { "address": "2431 S CAMAC ST", "year": 2013.0, "permitdescription": "ALTERATION PERMIT" }, "geometry": { "type": "Point", "coordinates": [ -75.167387455794, 39.919535871054386 ] } },
{ "type": "Feature", "properties": { "address": "2545 S CAMAC ST", "year": 2014.0, "permitdescription": "ALTERATION PERMIT" }, "geometry": { "type": "Point", "coordinates": [ -75.167734489468572, 39.917831065499115 ] } },
{ "type": "Feature", "properties": { "address": "2508 S CAMAC ST", "year": 2012.0, "permitdescription": "ALTERATION PERMIT" }, "geometry": { "type": "Point", "coordinates": [ -75.167934360013433, 39.918364843229931 ] } },
{ "type": "Feature", "properties": { "address": "2434 S 13TH ST", "year": 2010.0, "permitdescription": "ALTERATION PERMIT" }, "geometry": { "type": "Point", "coordinates": [ -75.168775836238837, 39.919556306175807 ] } },
{ "type": "Feature", "properties": { "address": "2648 S CAMAC ST", "year": 2008.0, "permitdescription": "ALTERATION PERMIT" }, "geometry": { "type": "Point", "coordinates": [ -75.168287964560363, 39.916734238946283 ] } },
{ "type": "Feature", "properties": { "address": "2516 S ROSEWOOD ST", "year": 2015.0, "permitdescription": "ALTERATION PERMIT" }, "geometry": { "type": "Point", "coordinates": [ -75.171729781140343, 39.919064314313623 ] } },
{ "type": "Feature", "properties": { "address": "2541 S BROAD ST", "year": 2008.0, "permitdescription": "ALTERATION PERMIT" }, "geometry": { "type": "Point", "coordinates": [ -75.170650796314135, 39.918352531682558 ] } },
{ "type": "Feature", "properties": { "address": "2545 S BROAD ST", "year": 2012.0, "permitdescription": "ALTERATION PERMIT" }, "geometry": { "type": "Point", "coordinates": [ -75.170669828509247, 39.918264245876536 ] } },
{ "type": "Feature", "properties": { "address": "2531 S BROAD ST", "year": 2009.0, "permitdescription": "ALTERATION PERMIT" }, "geometry": { "type": "Point", "coordinates": [ -75.170604135556275, 39.918570291676502 ] } },
{ "type": "Feature", "properties": { "address": "2537 S WATTS ST", "year": 2015.0, "permitdescription": "ALTERATION PERMIT" }, "geometry": { "type": "Point", "coordinates": [ -75.170112085130995, 39.918471365738199 ] } },
{ "type": "Feature", "properties": { "address": "1243 PORTER ST", "year": 2014.0, "permitdescription": "ALTERATION PERMIT" }, "geometry": { "type": "Point", "coordinates": [ -75.168520495987607, 39.919281894213192 ] } },
{ "type": "Feature", "properties": { "address": "2601 S CAMAC ST", "year": 2011.0, "permitdescription": "ALTERATION PERMIT" }, "geometry": { "type": "Point", "coordinates": [ -75.16776790473628, 39.91761144826809 ] } },
{ "type": "Feature", "properties": { "address": "2522 S JUNIPER ST", "year": 2008.0, "permitdescription": "ALTERATION PERMIT" }, "geometry": { "type": "Point", "coordinates": [ -75.169880496897164, 39.918721049597849 ] } },
{ "type": "Feature", "properties": { "address": "2701 S 13TH ST", "year": 2009.0, "permitdescription": "ALTERATION PERMIT" }, "geometry": { "type": "Point", "coordinates": [ -75.169040719946821, 39.916329958714428 ] } },
{ "type": "Feature", "properties": { "address": "2653 S JUNIPER ST", "year": 2012.0, "permitdescription": "ALTERATION PERMIT" }, "geometry": { "type": "Point", "coordinates": [ -75.170010710940133, 39.916874314553006 ] } },
{ "type": "Feature", "properties": { "address": "2438 S JUNIPER ST", "year": 2008.0, "permitdescription": "ALTERATION PERMIT" }, "geometry": { "type": "Point", "coordinates": [ -75.169677559691792, 39.919653060393628 ] } },
{ "type": "Feature", "properties": { "address": "2650 S 13TH ST", "year": 2011.0, "permitdescription": "ALTERATION PERMIT" }, "geometry": { "type": "Point", "coordinates": [ -75.169433040833368, 39.917024563351752 ] } },
{ "type": "Feature", "properties": { "address": "2537 S WATTS ST", "year": 2015.0, "permitdescription": "ALTERATION PERMIT" }, "geometry": { "type": "Point", "coordinates": [ -75.170112085130995, 39.918471365738199 ] } },
{ "type": "Feature", "properties": { "address": "2711 S 13TH ST", "year": 2009.0, "permitdescription": "ALTERATION PERMIT" }, "geometry": { "type": "Point", "coordinates": [ -75.169101513548313, 39.916072114667848 ] } },
{ "type": "Feature", "properties": { "address": "2545 S ALDER ST", "year": 2008.0, "permitdescription": "ALTERATION PERMIT" }, "geometry": { "type": "Point", "coordinates": [ -75.164544808535055, 39.917616602574057 ] } },
{ "type": "Feature", "properties": { "address": "2512 S ALDER ST", "year": 2014.0, "permitdescription": "ALTERATION PERMIT" }, "geometry": { "type": "Point", "coordinates": [ -75.164723385646639, 39.918275120754217 ] } },
{ "type": "Feature", "properties": { "address": "2520 S MILDRED ST", "year": 2012.0, "permitdescription": "ALTERATION PERMIT" }, "geometry": { "type": "Point", "coordinates": [ -75.161631461110815, 39.917715772738639 ] } },
{ "type": "Feature", "properties": { "address": "2522 S 10TH ST", "year": 2015.0, "permitdescription": "ALTERATION PERMIT" }, "geometry": { "type": "Point", "coordinates": [ -75.1642670763746, 39.917989005679239 ] } },
{ "type": "Feature", "properties": { "address": "2434 S 11TH ST", "year": 2013.0, "permitdescription": "ALTERATION PERMIT" }, "geometry": { "type": "Point", "coordinates": [ -75.165673572620534, 39.918958613950892 ] } },
{ "type": "Feature", "properties": { "address": "2618 S SARTAIN ST", "year": 2011.0, "permitdescription": "ALTERATION PERMIT" }, "geometry": { "type": "Point", "coordinates": [ -75.167089609147823, 39.917162054926393 ] } },
{ "type": "Feature", "properties": { "address": "2515 S PERCY ST", "year": 2014.0, "permitdescription": "ALTERATION PERMIT" }, "geometry": { "type": "Point", "coordinates": [ -75.16298332644179, 39.917983064174194 ] } },
{ "type": "Feature", "properties": { "address": "2425 S DARIEN ST", "year": 2008.0, "permitdescription": "ALTERATION PERMIT" }, "geometry": { "type": "Point", "coordinates": [ -75.161535594421181, 39.918899759566798 ] } },
{ "type": "Feature", "properties": { "address": "2624 S PERCY ST", "year": 2009.0, "permitdescription": "ALTERATION PERMIT" }, "geometry": { "type": "Point", "coordinates": [ -75.163488268067113, 39.916597238835791 ] } },
{ "type": "Feature", "properties": { "address": "1125 PORTER ST", "year": 2012.0, "permitdescription": "ALTERATION PERMIT" }, "geometry": { "type": "Point", "coordinates": [ -75.166252180633904, 39.918967347201963 ] } },
{ "type": "Feature", "properties": { "address": "2523 S 9TH ST", "year": 2014.0, "permitdescription": "ALTERATION PERMIT" }, "geometry": { "type": "Point", "coordinates": [ -75.162318955737547, 39.917742735866284 ] } },
{ "type": "Feature", "properties": { "address": "2653 S WARNOCK ST", "year": 2013.0, "permitdescription": "ALTERATION PERMIT" }, "geometry": { "type": "Point", "coordinates": [ -75.16533503804591, 39.916286649170694 ] } },
{ "type": "Feature", "properties": { "address": "2622 S 11TH ST", "year": 2008.0, "permitdescription": "ALTERATION PERMIT" }, "geometry": { "type": "Point", "coordinates": [ -75.166119128147187, 39.916949646138534 ] } },
{ "type": "Feature", "properties": { "address": "2434 S 11TH ST", "year": 2013.0, "permitdescription": "ALTERATION PERMIT" }, "geometry": { "type": "Point", "coordinates": [ -75.165673572620534, 39.918958613950892 ] } },
{ "type": "Feature", "properties": { "address": "2427 S HUTCHINSON ST", "year": 2013.0, "permitdescription": "ALTERATION PERMIT" }, "geometry": { "type": "Point", "coordinates": [ -75.163133188699859, 39.91907544669877 ] } },
{ "type": "Feature", "properties": { "address": "2535 S DARIEN ST", "year": 2008.0, "permitdescription": "ALTERATION PERMIT" }, "geometry": { "type": "Point", "coordinates": [ -75.161864177060608, 39.917476067893816 ] } },
{ "type": "Feature", "properties": { "address": "2518 S SARTAIN ST", "year": 2012.0, "permitdescription": "ALTERATION PERMIT" }, "geometry": { "type": "Point", "coordinates": [ -75.166832965181115, 39.918434758216669 ] } },
{ "type": "Feature", "properties": { "address": "2437 S DARIEN ST", "year": 2008.0, "permitdescription": "ALTERATION PERMIT" }, "geometry": { "type": "Point", "coordinates": [ -75.161585683070371, 39.918669274234993 ] } },
{ "type": "Feature", "properties": { "address": "939 SHUNK ST", "year": 2015.0, "permitdescription": "ALTERATION PERMIT" }, "geometry": { "type": "Point", "coordinates": [ -75.163814094600554, 39.917387611071675 ] } },
{ "type": "Feature", "properties": { "address": "2417 S WARNOCK ST", "year": 2012.0, "permitdescription": "ALTERATION PERMIT" }, "geometry": { "type": "Point", "coordinates": [ -75.164729976238888, 39.919114701038808 ] } },
{ "type": "Feature", "properties": { "address": "2511 S PERCY ST", "year": 2014.0, "permitdescription": "ALTERATION PERMIT" }, "geometry": { "type": "Point", "coordinates": [ -75.162966514963784, 39.918060719201861 ] } },
{ "type": "Feature", "properties": { "address": "2654 S 10TH ST", "year": 2012.0, "permitdescription": "ALTERATION PERMIT" }, "geometry": { "type": "Point", "coordinates": [ -75.164652148512246, 39.916152190987852 ] } },
{ "type": "Feature", "properties": { "address": "2642 S MARSHALL ST", "year": 2012.0, "permitdescription": "ALTERATION PERMIT" }, "geometry": { "type": "Point", "coordinates": [ -75.158860717714418, 39.91564074840776 ] } },
{ "type": "Feature", "properties": { "address": "2541 S MILDRED ST", "year": 2008.0, "permitdescription": "ALTERATION PERMIT" }, "geometry": { "type": "Point", "coordinates": [ -75.161409644259351, 39.917283399259077 ] } },
{ "type": "Feature", "properties": { "address": "2505 S REESE ST", "year": 2014.0, "permitdescription": "ALTERATION PERMIT" }, "geometry": { "type": "Point", "coordinates": [ -75.156565815357041, 39.917379548636745 ] } },
{ "type": "Feature", "properties": { "address": "509 OREGON AVE", "year": 2013.0, "permitdescription": "ALTERATION PERMIT" }, "geometry": { "type": "Point", "coordinates": [ -75.156975423732035, 39.915206487673181 ] } },
{ "type": "Feature", "properties": { "address": "2654 S FRANKLIN ST", "year": 2014.0, "permitdescription": "ALTERATION PERMIT" },